관광지명,관광지분류,주소,운영상세사항,관광지설명,경도,위도,분류,반려견제한사항
금호제주리조트 아쿠아나,테마파크,제주특별자치도 서귀포시 남원읍 남원리 2390,매월1번째월요일 / ,바다와 한라산 전망을 동시에 누리는 Seaside Resort / 11000원(온천탕성인)+9000원(온천탕어린이)+22000원(아쿠아나주중성인)+20000원(아쿠아나주중어린이)+26000원(아쿠아나주말성인)+21000원(아쿠아나주말어린이)+30000원(아쿠아나성수기성인)+26000원(아쿠아나성수기어린이),126.7014326,33.27264281,마을 관광자원,
큰엉해안경승지,자연,제주특별자치도 서귀포시 남원읍 남원리 2379-3,연중무휴 / (평일+주말+공휴일)11:00~20:00,때묻지 않은 기암절벽이 아름다운 해양경승지 / 무료,126.7037085,33.27334251,마을 관광자원,
코코몽 에코파크,테마파크,제주특별자치도 서귀포시 남원읍 남원리 2380 ,화요일 / (평일+주말+공휴일)10:00~18:00,아이들의 오감을 자극하는 친환경 프리미엄 테마파크 / 25000원(24개월이상13세까지아동)+15000원(중학생이상성인+장애아동)+무료(24개월미만유아)+9500원(장애성인)+3000원(코코몽기차1회탑승권+카레이싱1회이용권)+6000원(자유이용권),126.7058511,33.27455804,마을 관광자원,
마흐니 숲길,자연,제주특별자치도 서귀포시 남원읍 수망리 산203,연중무휴 / ,사색을 즐기며 걷기 좋은 숲길 / 무료,126.6551931,33.37944666,마을 관광자원,
물영아리오름,오름,제주특별자치도 서귀포시 남원읍 수망리 산 189,연중무휴 / ,신령스러운 산이라는 뜻의 '영아리'와 분화구에 물이 고인 습지를 품고 있기에 '물'이라는 접두어가 붙은 오름 / 무료,126.6935196,33.3708091,마을 관광자원,
양금석가옥,관광지,제주특별자치도 서귀포시 남원읍 신례1리 1314,연중무휴 / ,제주도 전통 초가 양식으로 이루어진 가옥 / 무료,126.6284804,33.29131729,마을 관광자원,
동백포레스트,테마파크,제주특별자치도 서귀포시 남원읍 신례리 1767,월요일+화요일 / (평일+주말+공휴일)10:00~18:00,사진찍기 좋은 신례리 동백나무 군락지 / 4000원(성인)+3000원(제주도민+초등학생+경로)+무료(미취학아동+국가유공자),126.6361998,33.30030681,마을 관광자원,
이승이오름(이승악),오름,제주특별자치도 서귀포시 남원읍 신례리 산 2-4,연중무휴 / ,살쾡이를 닮아서 이승이란 이름을 갖게 된 오름 / 무료,126.6222444,33.34014394,마을 관광자원,
사라오름,오름,제주특별자치도 서귀포시 남원읍 신례리 산 2-1,연중무휴 / ,노루 떼가 뛰어노는 모습이 한 폭의 그림 같은 곳임 / 무료,126.5708337,33.37192793,마을 관광자원,
휴애리 자연생활공원,공원,제주특별자치도 서귀포시 남원읍 신례리 2081,연중무휴 / (평일+주말+공휴일)09:00~18:00,자연 속 동식물들과 교감이 있는 체험형 자연생활공원 / 13000원(성인)+11000원(청소년+성인단체)+10000원(어린이)+9000원(청소년단체)+8000원(어린이단체)+6500원(경로+유공자성인+장애인성인+제주도민성인)+5500원(유공자청소년+장애인청소년+제주도민청소년)+5000원(유공자어린이+장애인어린이+제주도민어린이),126.635405,33.3093861,마을 관광자원,
제주 신례리 왕벚나무 자생지,자연,제주특별자치도 서귀포시 남원읍 신례리 산 2-1,연중무휴 / ,제주시에서 서귀포시로 가는 길목 산자락에 자리하고 있는 나무 / 무료,126.6096904,33.33820947,마을 관광자원,
공천포구,항구,제주특별자치도 서귀포시 남원읍 신례리 72-18,연중무휴 / ,검은 돌과 검은 모래가 가득한 바다 / 무료,126.6418425,33.26338571,마을 관광자원,
예절이오름(여절악),오름,제주특별자치도 서귀포시 남원읍 신흥리 산 18,연중무휴 / ,정상에서 바라보는 말굽형 모양의 예절이오름 / 무료,126.7364605,33.34893211,마을 관광자원,
스프링데일CC,테마파크,제주특별자치도 서귀포시 남원읍 위미리 4625,연중무휴 / (평일+주말+공휴일)06:00~21:00,해발 400고지에 위치한 여름에는 시원하고 겨울에는 따뜻한 기온의 골프장 / 111000원(주중18홀)+141000원(토요일+공휴일)+80000원(카트비)+120000원(캐디비),126.6384742,33.32935251,마을 관광자원,
이음새,관광지,제주특별자치도 서귀포시 남원읍 위미리 4137-1,목요일 / (평일+주말+공휴일)10:00~17:00,"감귤 따기 체험, 감물염색 체험 등 체험을 할 수 있는 천연염색체험장 / 55000원(혼합봉10kg)+35000원(꼬마봉10kg)",126.651431,33.27578785,마을 관광자원,
위미동백나무군락,관광지,제주특별자치도 서귀포시 남원읍 위미리 903-1,연중무휴 / ,"사철 푸른 동백과 새, 감귤원과 함께 남국의 정취를 느낄 수 있음 / 무료",126.6747236,33.27292969,마을 관광자원,
"자배봉(자배오름, 망오름)",오름,제주특별자치도 서귀포시 남원읍 위미리 산 132-2,연중무휴 / ,생태숲과 유적지를 가지고 있는 자배봉 / 무료,126.6769199,33.30098962,마을 관광자원,
태웃개,관광지,제주특별자치도 서귀포시 남원읍 위미리 69,연중무휴 / ,여유롭게 물놀이를 즐기며 해안 절경을 감상할 수 있는 곳임 / 무료,126.6911068,33.27038829,마을 관광자원,
의귀리 김만일묘역,관광지,제주특별자치도 서귀포시 남원읍 의귀리 1773,연중무휴 / ,제주 고유의 석물문화를 밝히는 자료 / 무료,126.709273,33.32216083,마을 관광자원,
옥돔마을,관광지,제주특별자치도 서귀포시 남원읍 태흥리 364-4,연중무휴 / ,옥돔 경매 구경 및 옥돔 요리 먹을 수 있는 곳임 / 무료,126.7501733,33.2870209,마을 관광자원,
걸서악오름,오름,제주특별자치도 서귀포시 남원읍 하례리 산 124번지,연중무휴 / ,"시원한 하례리 마을 풍경과 범섬, 섭섬 풍경을 한번에 볼 수 있는 오름 / 무료",126.6200543,33.28228456,마을 관광자원,
제주농업생태원,관광지,제주특별자치도 서귀포시 남원읍 하례리 1558,연중무휴 / (평일+주말+공휴일)10:00~17:00,감귤에 대한 모든 궁금증을 풀어주는 곳 / 무료,126.609863,33.28862074,마을 관광자원,
효명사,관광지,제주특별자치도 서귀포시 남원읍 하례리 산 45,연중무휴 / ,한라산 중턱에 위치한 소박한 사찰 / 무료,126.5941628,33.32328748,마을 관광자원,
고살리숲길,자연,제주특별자치도 서귀포시 남원읍 하례리 산 54-2,연중무휴 / (평일)10:00~16:00+(주말)14:00~16:00,연중 물이 고이고 흐르는 계속에 나무들이 조화를 이루는 숲길 / 무료,126.5985137,33.31714129,마을 관광자원,
수악,오름,제주특별자치도 서귀포시 남원읍 하례리 산 10,연중무휴 / ,가슴을 청아하게 물들이는 오름 / 무료,126.6093992,33.3246324,마을 관광자원,
머체왓숲길,자연,제주특별자치도 서귀포시 남원읍 한남리 1622-3,연중무휴 / (평일+주말+공휴일+하절기)08:30~18:30+(평일+주말+공휴일+동절기)09:00~19:00,다양한 테마가 어우러진 숲길임 / 무료,126.673919,33.3305303,마을 관광자원,
사려니오름,오름,제주특별자치도 서귀포시 남원읍 한남리 산 2-1,월요일+화요일+산불조심기간(매년 11월 1일~ 5월 15일) / (평일+주말+공휴일)09:00~17:00,볼록한 제주 오름들이 한눈에 보이는 오름 / 무료,126.6458498,33.34008502,마을 관광자원,
가파도,자연,제주특별자치도 서귀포시 대정읍 가파리 276, / ,제주도 부속섬 중 4번째로 큰 섬임 / ,126.2714146,33.1700117,마을 관광자원,
노리매,테마파크,제주특별자치도 서귀포시 대정읍 구억리 654-1,연중무휴 / (평일+주말+공휴일)09:00~18:00,사계절이 머무는 자연 속에서 여유롭게 산책할 수 있는 공원 / 9000원(성인개인)+7000원(성인단체)+6000원(청소년개인+군인개인+유공자개인+경로개인+장애인개인)+5000원(청소년단체+군인단체+유공자단체+경로단체+장애인단체+어린이개인)+4000원(어린이단체),126.2873486,33.28309895,마을 관광자원,
대한민국최남단비,관광지,제주특별자치도 서귀포시 대정읍 가파리 583-9, / ,최남단을 상징하는 기념비 / ,126.2685579,33.11377176,마을 관광자원,
마라도 등대,기타,제주특별자치도 서귀포시 대정읍 가파리 639,연중무휴 / (평일+주말+공휴일)09:00~18:00,대한민국 최남단에 위치한 푸른 잔디밭 끝에 걸쳐 바다를 향하고 있는 마라도 등대 / ,126.2695118,33.11664905,마을 관광자원,
초콜렛캐슬,전시관,제주특별자치도 서귀포시 대정읍 가파리 685, / ,초콜릿을 주제로 전시된 작품이 있는 박물관 / ,126.2672697,33.11392085,마을 관광자원,
마라도,자연,제주특별자치도 서귀포시 대정읍 가파리 600, / ,대한민국 최남단에 위치한 섬 / ,126.2671688,33.11848589,마을 관광자원,
가파초등학교 마라분교장,관광지,제주특별자치도 서귀포시 대정읍 가파리 696, / ,마라도에 위치한 분교이며 관광객들 포토존 / ,126.2667098,33.11924732,마을 관광자원,
무릉곶자왈,자연,제주특별자치도 서귀포시 대정읍 무릉리 산 1,연중무휴 / ,자연 그대로를 간직한 제주도만의 독특한 숲 / ,126.2625449,33.29155108,마을 관광자원,
엉클리틀,테마파크,제주특별자치도 서귀포시 대정읍 보성리 989, / ,관광농원 및 팜스테이 / ,126.2646735,33.25599076,마을 관광자원,
제주곶자왈도립공원,공원,제주특별자치도 서귀포시 대정읍 보성리 산1,연중무휴 / (평일+주말+공휴일+하절기)09:00~18:00+(평일+주말+공휴일+동절기)09:00~18:00,암괴들이 불규칙하게 널려있는 지대에 형성된 숲 / 1000원(성인)+800원(청소년+군인)+500원(어린이),126.2736047,33.28319972,마을 관광자원,
발자국화석공원,자연,제주특별자치도 서귀포시 대정읍 상모리 626-1, / ,천연기념물 제464호로 지정되어 있으며 다양한 생물의 발자국 화석을 볼 수 있는 곳 / ,126.2931434,33.21735034,마을 관광자원,
송악산진지동굴,자연,제주특별자치도 서귀포시 대정읍 상모리 194-2, / ,2차 대전 당시 대정읍에 만든 국내 최대의 일제시대 군사유적지 / ,126.2917117,33.20333105,마을 관광자원,
송악카트체험장,관광지,제주특별자치도 서귀포시 대정읍 상모리 139,연중무휴 / (평일+주말+공휴일+하절기)09:00~18:30+(평일+주말+공휴일+동절기)09:00~17:00,송악산 근처 레포츠시설 카트체험장 / 25000원(성인+청소년+어린이)+5000원(유아동승),126.2894204,33.20850906,마을 관광자원,
알뜨르비행장,관광지,제주특별자치도 서귀포시 대정읍 상모리 1670,연중무휴 / ,1945년 무렵에 만들어진 일본 해군 비행장의 부속 시설 / ,126.2715241,33.20471796,마을 관광자원,
섯알오름 ,오름,제주특별자치도 서귀포시 대정읍 상모리 1593-2, / ,역사의 아픔을 간직한 오름 / ,126.2812239,33.20647842,마을 관광자원,
송악산 전망대,기타,제주특별자치도 서귀포시 대정읍 상모리 산 2-13, / ,해안을 따라 펼쳐진 주변 경관을 감상할 수 있어 관광객들이 많이 찾는 곳 / ,126.2939734,33.19848191,마을 관광자원,
제주 추사관,관광지,제주특별자치도 서귀포시 대정읍 안성리 1661-1,월요일 / (평일+주말+공휴일)09:00~18:00,조선 후기 문신이자 서화가였던 추사 김정희 선생이 제주 유배지에서 역작 「세한도」와 추사체(秋史體)를 창출해 낸 업적을 기리는 곳으로 김정희 선생이 유배생활을 하며 남긴 흔적들을 볼 수 있음 / 무료,126.2782283,33.24997529,마을 관광자원,
제주도예촌,관광지,제주특별자치도 서귀포시 대정읍 영락리 6, / (평일)10:00~17:00,유약없이 도자기를 직접 굽는 곳으로 제주만의 도자기를 볼 수 있는 제주의 숨겨진 명소 / ,126.2355517,33.26490673,마을 관광자원,
초콜릿박물관,전시관,제주특별자치도 서귀포시 대정읍 일과리 551-18,연중무휴 / (평일+주말+공휴일)10:30~17:00,초콜릿의 역사와 지구상 모든 초콜릿에 대하여 알아갈 수 있는 초콜릿 박물관임 / 7000원(성인+중학생이상)+6500원(성인단체+중학생단체)+5000원(6세부터13세까지)+4500원(6세부터13세까지단체),126.2299943,33.25703747,마을 관광자원,
하모해변,해수욕장+해변,제주특별자치도 서귀포시 대정읍 하모리 279,연중무휴 / (평일+주말+공휴일)00:00~24:00,"안전사고 우려가 높아 현재는 폐장된 상태이며, 올레 10코스 지점 중 하나이며 해변 근처에 유료 야영장이 존재함, 여름 성수기에는 바닷속을 걸어 다니는 ‘씨워킹’이라는 이색 해양 스포츠를 경험할 수 있음 / 무료",126.2608081,33.21129293,마을 관광자원,
제주커피박물관 Baum,전시관,제주특별자치도 서귀포시 성산읍 고성리 2040-1,연중무휴 / (평일+주말+공휴일+하절기)09:00~19:00+(평일+주말+공휴일+동절기)09:00~18:00,숲과 함께 다채로운 커피의 향을 즐길 수 있는 곳 / 7000원(바움라떼)+7500원(아인슈페너)+5000원(에스프레소),126.8992088,33.43987825,마을 관광자원,
대수산봉,오름,제주특별자치도 서귀포시 성산읍 고성리 2039-1,연중무휴 / (평일+주말+공휴일)00:00~24:00,성산일출봉과 섭지코지가 아름답게 내려다 보이는 곳 / 무료,126.9016368,33.43967057,마을 관광자원,
빛의벙커,전시관,제주특별자치도 서귀포시 성산읍 고성리 2039-22,연중무휴 / (평일+주말+공휴일+하절기)10:00~19:00+(평일+주말+공휴일+동절기)10:00~18:00,옛 국가기간 통신시설 벙커를 재생하여 거장들의 작품을 빛과 음악을 통해서 감상하는 빛의 벙커 / 18000원(성인)+13000원(청소년)+10000원(어린이)+8000원(4세이상7세까지+장애인+국가유공자)+12600원(제주도민성인)+9100원(제주도민청소년)+7000원(제주도민어린이)+5600원(제주도민4세이상7세까지+장애인+국가유공자),126.8998166,33.43964883,마을 관광자원,
쿠지홀리데이팜,테마파크,제주특별자치도 서귀포시 성산읍 난산리 1097,연중무휴 / (평일+주말+공휴일)10:00~16:00,천혜향 따기 체험과 구매를 할 수 있는 농원 / 10000원(성인+청소년+어린이),126.8708197,33.40218696,마을 관광자원,
아일랜드플라워,테마파크,제주특별자치도 서귀포시 성산읍 난산리 2236,연중무휴 / (평일+주말+공휴일)10:00~18:00,제주도 남쪽 동부에 위치한 아일랜드 플라워 동물원 / 7000원(성인+청소년)+5000원(어린이),126.8496372,33.42432256,마을 관광자원,
모구리오름,오름,제주특별자치도 서귀포시 성산읍 난산리 2960-1,연중무휴 / (평일+주말+공휴일)00:00~24:00,편백나무 숲이 있는 오름 / 무료,126.8286384,33.40901972,마을 관광자원,
유건에오름,오름,제주특별자치도 서귀포시 성산읍 난산리 2302,연중무휴 / (평일+주말+공휴일)00:00~24:00,북쪽과 서쪽의 봉우리가 이어져 1km의 능선을 이루고 있는 오름 / 무료,126.8458048,33.41322123,마을 관광자원,
베니스랜드,테마파크,제주특별자치도 서귀포시 성산읍 난산리 2570,연중무휴 / (평일+주말+공휴일)09:00~18:00,제주에서 만나는 아름다운 수상도시 베니스 여행 / 12000원(성인)+10000원(청소년)+8000원(어린이),126.8407105,33.41527273,마을 관광자원,
김영갑갤러리두모악,전시관,제주특별자치도 서귀포시 성산읍 삼달리 437-5,수요일+명절(추석+설날) / (하절기)09:30~18:30+(동절기)09:30~17:00+(간절기)09:30~18:00,두모악에는 제주를 매우 사랑하며 두모악에 잠든 김영갑 선생의 20여년간의 작품들이 전시 / 4500원(성인)+3000원(청소년+군인+국가유공자+제주도민)+1500원(어린이+65세이상경로)+무료(3세이하+장애인),126.854144,33.37189885,마을 관광자원,
고흐의정원,관광지,제주특별자치도 서귀포시 성산읍 삼달리 1185-2,연중무휴 / (평일+주말+공휴일)09:30~18:30,위대한 작가 반고흐의 지난 삶을 보고 듣고 만질 수 있는 고흐의 정원 / 12000원(성인)+10000원(청소년+20명단체성인)+8000원(어린이+제주도민성인+제주도민청소년+20명단체청소년)+6000원(제주도민어린이+20명단체어린이),126.8437071,33.37335804,마을 관광자원,
블루마운틴4255,관광지,제주특별자치도 서귀포시 성산읍 삼달리 1510-1,연중무휴 / (평일+주말+공휴일)09:00~18:00,향긋한 커피의 공간 블루마운틴 커피박물관 / 12000원(커피족욕)+15000원(전동킥보드1시간)+20000원(전동킥보드2시간),126.8373142,33.38006916,마을 관광자원,
미천굴,자연,제주특별자치도 서귀포시 성산읍 삼달리 1010,연중무휴 / (평일+주말+공휴일)08:30~18:00,"길이 1,695 m이며, 신생대 제4기 초에 생겨난 용암굴 / 9000원(성인)+8000원(경로)+6000원(청소년)+5000원(어린이)",126.84266,33.38344811,마을 관광자원,
일출랜드,테마파크,제주특별자치도 서귀포시 성산읍 삼달리 1010,연중무휴 / (평일+주말+공휴일)09:00~18:00,"미천굴을 중심으로 사계절 제주 토종 식물과 꽃의 축제가 열리는 제주 청정 자연의 생태, 문화, 체험이 가능한 웰니스 관광지 / 9000원(성인)+8000원(경로)+6000원(청소년)+5000원(어린이+감귤체험)",126.8415988,33.38342648,마을 관광자원,
성산일출봉,자연,제주특별자치도 서귀포시 성산읍 성산리 114,매월1번째월요일 / (평일+주말+하절기)07:00~20:00+(평일+주말+동절기)07:30~19:00,제주도의 다른 오름들과는 달리 마그마가 물속에서 분출하면서 만들어진 수성화산체 / 5000원(성인)+4000원(성인단체)+2500원(청소년+군인+어린이)+2000원(청소년단체+군인단체+어린이단체),126.9405375,33.45911604,마을 관광자원,
성산포항,자연,제주특별자치도 서귀포시 성산읍 성산리 347-9,연중무휴 / (평일+주말+공휴일)00:00~24:00,제주 서귀포시 성산읍에 있는 항구 / 무료,126.9332874,33.47343666,마을 관광자원,
대왕산,자연,제주특별자치도 서귀포시 성산읍 수산리 1429,연중무휴 / (평일+주말+공휴일)00:00~24:00,성산읍 수산리 북서쪽에 위치한 오름 / 무료,126.8729152,33.45612141,마을 관광자원,
통오름,오름,제주특별자치도 서귀포시 성산읍 신산리 1754-1,연중무휴 / (평일+주말+공휴일)00:00~24:00,"산 모양이 물통, 밥통 같은 통처럼 움푹 패인 형태라고 하여 통오름 / 무료",126.8558848,33.39303937,마을 관광자원,
쇠와꽃승마장,관광지,제주특별자치도 서귀포시 성산읍 고성리 354-1,연중무휴 / (평일+주말+공휴일+하절기)09:00~18:30+(평일+주말+공휴일+동절기)09:00~17:30,해변을 따라 승마를 즐길 수 있는 곳 / 25000원(쇠와꽃A코스)+50000원(쇠와꽃B코스)+150000원(해안외승트레킹),126.91985,33.44736091,마을 관광자원,
아쿠아플라넷 제주,테마파크,제주특별자치도 서귀포시 성산읍 고성리 127-3,연중무휴 / (평일+주말+공휴일)09:30~19:00,450여종의 바다생명체가 있는 아시아 최대 수족관 / 40700원(성인)+38900원(청소년+경로)+36900원(어린이),126.927681,33.43287455,마을 관광자원,
붉은오름,오름,제주특별자치도 서귀포시 성산읍 고성리 57,연중무휴 / (평일+주말+공휴일)00:00~24:00,오름 전체가 붉은송이로 형성되어 있는 곳 / 무료,126.9336425,33.42742537,마을 관광자원,
소수산봉,오름,제주특별자치도 서귀포시 성산읍 고성리 887,연중무휴 / (평일+주말+공휴일)00:00~24:00,아름다운 일출봉과 광치기 해안을 볼 수 있는 곳 / 무료,126.9122111,33.43675277,마을 관광자원,
섭지코지,자연,제주특별자치도 서귀포시 성산읍 고성리 87,연중무휴 / (평일+주말+공휴일)00:00~24:00,아름다운 해안이 일품인 섭지 / 무료,126.9306049,33.42393671,마을 관광자원,
광치기해변,해수욕장+해변,제주특별자치도 서귀포시 성산읍 고성리 224-33,연중무휴 / (평일+주말+공휴일)00:00~24:00,성산일출봉과 독특한 해안지형이 어우러져 이색적인 풍광을 간직한 곳 / 무료,126.9238923,33.45231781,마을 관광자원,
아비앙또정원,테마파크,제주특별자치도 서귀포시 성산읍 신풍리 1411,연중무휴 / (평일+주말+공휴일)10:00~18:00,개인이 운영하는 정원. 아름다운 해바라기를 볼 수 있어 많은 사람들이 찾는 곳 / 5000원(성인+청소년+어린이+경로),126.8207755,33.36924046,마을 관광자원,
식산봉,오름,제주특별자치도 서귀포시 성산읍 오조리 313,연중무휴 / (평일+주말+공휴일)00:00~24:00,성산읍 오조리에 위치한 측화산. 제주 기념물 제47호인 황근자생지 및 상록활엽수림이 있는 곳 / 무료,126.9199326,33.46566816,마을 관광자원,
오조포구,항구,제주특별자치도 서귀포시 성산읍 오조리,연중무휴 / (평일+주말+공휴일)00:00~24:00,바다 위 성산일출봉의 모습이 보임. 인기 드라마의 촬영지로 쓰여 관광객들이 많이 찾는 곳 / 무료,126.9210375,33.46323452,마을 관광자원,
혼인지마을,관광지,제주특별자치도 서귀포시 성산읍 온평리 1693,연중무휴 / (평일+주말+공휴일)08:00~17:00,"혼인지는 탐라국 건국신화 ‘삼신인’의 신화가 있는 곳으로, 넓은 연못인 혼인지에서 3신이 혼례를 올림으로써 자손이 늘어나고 농사가 시작되었다는 전설이 전해짐 / 무료",126.8937838,33.41518977,마을 관광자원,
안덕계곡,자연,제주특별자치도 서귀포시 안덕면 감산리 1946,연중무휴  / (평일+주말+공휴일)00:00~24:00,"구가의 서' 촬영지, 제주의 아름다운 계곡 중 하나로 꼽히는 신비한 안덕계곡, 공사중으로 출입 전면 통제 중, 2023년 공사 완료 예정 / 무료",126.352557,33.2571804,마을 관광자원,
감귤체험농장 예래팜 본점,관광지,제주특별자치도 서귀포시 안덕면 감산리 349, / (평일)09:00~18:00,친환경으로 직접 지은 귤 따기 체험과 친환경 무농약 귤을 경험할 수 있는 곳 / 5000원(감귤따기체험),126.3541987,33.25866984,마을 관광자원,
월라봉 진지동굴(안덕면),자연,제주특별자치도 서귀포시 안덕면 감산리 1162,연중무휴 / ,아름답지만 슬픈 역사가 남아 있는 월라봉 진지동굴 / 무료,126.3488505,33.2447052,마을 관광자원,
건강과성박물관,전시관,제주특별자치도 서귀포시 안덕면 감산리 1404,연중무휴 / (평일+주말+공휴일+하절기)09:00~20:00+(평일+주말+공휴일+동절기)09:00~18:00+(평일+주말+공휴일+간절기)09:00~19:00,"건강과 성 박물관은 서귀포시 안덕면 감산리에서 세계최대, 최초의 제1종 성 박물관으로 운영 / 13000원(성인)+11000원(제주도민+경로우대+의무군경)+9000원(장애인)",126.3466608,33.25490453,마을 관광자원,
볼레낭길,자연,제주특별자치도 서귀포시 안덕면 감산리 1049,연중무휴 / ,"제주올레 9코스의 한 구간, 보리수나무가 흐드러진 볼레낭길 / 무료",126.3492461,33.23584661,마을 관광자원,
월나봉(도래오름),오름,제주특별자치도 서귀포시 안덕면 감산리 1144,연중무휴 / ,제주 서부일대의 전쟁유적지를 느낄 수 있는 오름 / 무료,126.3494815,33.24390832,마을 관광자원,
창고천생태공원,공원,제주특별자치도 서귀포시 안덕면 감산리 1946, / ,안덕지역을 통과하는 생태 공원 / ,126.3548912,33.25643517,마을 관광자원,
박수기정,관광지,제주특별자치도 서귀포시 안덕면 감산리 1008,연중무휴 / ,중문의 주상절리나 애월 해안도로의 해안 절벽 같은 멋진 풍경을 지닌 곳 / 무료,126.359158,33.2364413,마을 관광자원,
왕이메오름,오름,제주특별자치도 서귀포시 안덕면 광평리 산 79,연중무휴 / (평일+주말+공휴일)09:00~18:00,탐라국 삼신왕이 사흘 동안 기도를 드린 전설 속의 오름(마지막 입산시간:15:30) / 무료,126.3765718,33.34352428,마을 관광자원,
돔박이오름,오름,제주특별자치도 서귀포시 안덕면 광평리 산 89,연중무휴 / ,키 큰 억새들의 오름 / 무료,126.3643392,33.33947266,마을 관광자원,
군산,오름,제주특별자치도 서귀포시 안덕면 창천리 산 3-1, / ,비고 280m의 원추형(라바돔) 화구를 지닌 화산체 / ,126.3699606,33.25310206,마을 관광자원,
대평포구,항구,제주특별자치도 서귀포시 안덕면 창천리 914-5,연중무휴 / (평일+주말+공휴일)00:00~24:00,"제주 올레 9코스의 시작 점이자 동시에 8코스의 종착점이며, 넓은 포구의 해안 길을 따라 걷다 보면 박수 기정이라 불리는 해안 절벽이 수려한 풍광을 자랑하고 있음 / 무료",126.3619046,33.23718348,마을 관광자원,
은하감귤체험농장,관광지,제주특별자치도 서귀포시 안덕면 덕수리 1700,연중무휴 / (평일+주말+공휴일)09:00~17:00,귤 따기 체험과 귤 판매를 하는 곳 / 5000원,126.3045463,33.27249876,마을 관광자원,
감귤밭미즈허팜,관광지,제주특별자치도 서귀포시 안덕면 덕수리 1115,하절기+간절기 / (평일+주말+공휴일+동절기+간절기)09:30~17:00,부담없이 감귤체험을 할 수 있는 농장(10~3월 운영) / 12000원,126.3141515,33.26166515,마을 관광자원,
미령이네,테마파크,제주특별자치도 서귀포시 안덕면 덕수리 2107-8,목요일 / (평일+주말+공휴일)10:00~17:00,직접 농사지은 귤 밭에서 귤 따기 체험농장을 운영 중 / 6000원,126.3042515,33.26129007,마을 관광자원,
마노르블랑,테마파크,제주특별자치도 서귀포시 안덕면 덕수리 2952,연중무휴 / (평일+주말+공휴일)09:00~19:00,7000여본에 유럽 수국과 장미 그리고 동백으로 꾸며진 아름다운 정원이 있는 아날로그감성 카페 / 4000원(성인),126.2949881,33.25481842,마을 관광자원,
하영담아감귤농장,테마파크,제주특별자치도 서귀포시 안덕면 덕수리 2263-2,연중무휴 / (평일+주말+공휴일)09:00~18:00,농촌과 도시의 연결고리인 하영담아 감귤농장 / 35000원(바구니당),126.3046396,33.25428671,마을 관광자원,
루나폴,테마파크,제주특별자치도 서귀포시 안덕면 덕수리 산 27,연중무휴 / (평일+주말+공휴일)19:00~24:00,세계 최대규모 디지털 테마파크 / 22000원(성인)+20000원(청소년)+17000원(어린이),126.3222747,33.25413388,마을 관광자원,
제주아트서커스,관광지,제주특별자치도 서귀포시 안덕면 동광리 886,연중무휴 / (평일+주말+공휴일)09:00~17:00(10:30/15:00/17:00 3회공연),"세계 최초 7인의 여전사, 오토바이쇼 상상 그 이상의 감동 국내 최초 오토바이쇼 상설 공연을 시작으로 항상 최고와 새로움을 추구하는 서커스월드 공연장 / 20000원(성인)+18000원(청소년)+15000원(어린이)",126.3448081,33.31437865,마을 관광자원,
무등이왓터,관광지,제주특별자치도 서귀포시 안덕면 동광리 233-1,연중무휴 / ,불에 타 흔적만 남은 마을의 터 / 무료,126.3520825,33.30942864,마을 관광자원,
삼밭구석,관광지,제주특별자치도 서귀포시 안덕면 동광리 1396,연중무휴 / ,4.3사건 당시 죽은 삼밧구석 주민들의 원혼을 달래기 위해 마을 출신 주민들이 직접 세운 비석 / 무료,126.3307772,33.30995135,마을 관광자원,
토이파크,전시관,제주특별자치도 서귀포시 안덕면 동광리 383,연중무휴 / (평일+주말+공휴일)09:00~19:30,국내외 진귀한 장난감이 모여 있는 꿈동산 / 8000원(성인+청소년+어린이),126.3453645,33.31895498,마을 관광자원,
조은승마장,관광지,제주특별자치도 서귀포시 안덕면 동광리 897-2,연중무휴 / (평일+주말)09:00~18:00,아이들과 함께하는 승마체험 / ,126.3448302,33.3182399,마을 관광자원,
당오름,오름,제주특별자치도 서귀포시 안덕면 동광리 산 68-1,연중무휴 / ,뱀을 신으로 모시던 신당이 있던 오름 / 무료,126.3356543,33.33409324,마을 관광자원,
원물오름,오름,제주특별자치도 서귀포시 안덕면 동광리 산 41,연중무휴 / ,동광리에 위치한 측화산 / 무료,126.3448844,33.32320578,마을 관광자원,
거린오름,오름,제주특별자치도 서귀포시 안덕면 동광리 산 94,연중무휴 / ,제주도 서부를 한눈에 조망할 수 있는 거린오름 / 무료,126.3319271,33.30313462,마을 관광자원,
밝은오름,오름,제주특별자치도 서귀포시 안덕면 동광리 736,연중무휴 / ,명칭을 벗어나 숲을 이룬 환경으로 시민들을 받아들이는 착한 화산체 / 무료,126.3414677,33.30126738,마을 관광자원,
감낭오름,오름,제주특별자치도 서귀포시 안덕면 동광리 산 41,연중무휴 / ,오름 주변에 감나무가 있었음에 연유하여 감낭이라 이름 붙여진 오름 / 무료,126.3501824,33.32491736,마을 관광자원,
북오름,오름,제주특별자치도 서귀포시 안덕면 동광리 산 93,연중무휴 / ,안덕 곶자왈 지대에 위치한 북오름 / 무료,126.3320643,33.30627296,마을 관광자원,
제주커피수목원,테마파크,제주특별자치도 서귀포시 안덕면 사계리 3136,연중무휴 / (평일+주말+공휴일)09:00~18:00,다양한 체험이 가능한 커피수목원 / ,126.2872649,33.23855212,마을 관광자원,
대정향교,관광지,제주특별자치도 서귀포시 안덕면 사계리 3126-1,연중무휴 / ,서귀포시 안덕면 사계리에 있는 조선시대의 향교 / ,126.2883834,33.23954804,마을 관광자원,
산방굴사,관광지,제주특별자치도 서귀포시 안덕면 사계리 3693,연중무휴 / (평일+주말+공휴일)08:30~18:00,불상이 있어 사찰로 불리는 아름다운 풍광을 가진 산방굴사 / 1000원(성인)+500원(청소년+어린이),126.3130893,33.2379626,마을 관광자원,
형제섬,자연,제주특별자치도 서귀포시 안덕면 사계리 산 44,연중무휴 / ,바다 한가운데 바위처럼 보이는 크고 작은 섬 2개가 사람의 형과 아우처럼 마주보고 있다 하여 붙여진 형제섬 / ,126.3143429,33.21000356,마을 관광자원,
형제해안로전망대,관광지,제주특별자치도 서귀포시 안덕면 사계리 2147-13,연중무휴 / ,형제섬이 보이는 형제해안로 전망대 / ,126.3038673,33.22784929,마을 관광자원,
용머리하멜상선전시관,전시관,제주특별자치도 서귀포시 안덕면 사계리 116-7,연중무휴 / (평일+주말+공휴일+하절기)08:00~18:00+(평일+주말+공휴일+동절기)08:00~17:00,제주에 표류했던 네델란드인 하멜을 기념하기 위한 전시관 / 2500원(성인)+1500원(청소년+어린이),126.3137051,33.23330914,마을 관광자원,
산방산 랜드,테마파크,제주특별자치도 서귀포시 안덕면 사계리 117-2,연중무휴 / (평일+주말+공휴일+하절기)09:00~19:00+(평일+주말+공휴일+동절기)09:00~18:00,"산방산과 용머리 해안 관광지구에 설치된 곳으로 바이킹시설, 야구연습장 등  다양한 시설이 있는 곳 / ",126.311695,33.23379167,마을 관광자원,
용머리해안,해수욕장+해변,제주특별자치도 서귀포시 안덕면 사계리 112-3,연중무휴 / (평일+주말+공휴일)10:30~17:00,사계리에 위치한 천연기념물 제526호 용머리해안 / 2000원(성인)+1000원(청소년+어린이),126.3147424,33.23166941,마을 관광자원,
사계해변,해수욕장+해변,제주특별자치도 서귀포시 안덕면 사계리 2032-51,연중무휴 / ,산방산 바로 아래쪽에 위치한 작고 한적한 해변 / ,126.3086052,33.22867589,마을 관광자원,
파더스가든,테마파크,제주특별자치도 서귀포시 안덕면 상창리 804,연중무휴 / (평일+주말+공휴일)09:00~18:00,1966년부터 가꿔온 조경수농장을 2021년부터 관광농원으로 지정하여 약 50여년만에 오픈한 공간 / 10000원(성인)+8000원(어린이+청소년+경로+군인),126.3657545,33.27994772,마을 관광자원,
낭만농장 귤밭76번지,테마파크,제주특별자치도 서귀포시 안덕면 상창리 906,연중무휴 / (평일+주말+공휴일)10:00~17:00,제주도에서 귤 농사를 짓고 있는 청년들의 손길에서 비롯된 곳 / 2000원(입장료),126.3651497,33.28304844,마을 관광자원,
로빈맘금귤따기,테마파크,제주특별자치도 서귀포시 안덕면 상창리 1978,연중무휴 / (평일+주말+공휴일)09:30~17:00,감귤 따기 체험을 할 수 있는 농장 / 10000원(금귤1kg),126.351473,33.29239067,마을 관광자원,
피규어뮤지엄제주,전시관,제주특별자치도 서귀포시 안덕면 상창리 1875-8,월요일 / (평일+주말+공휴일)11:00~19:00,피규어 및 토이를 테마로 테마파크의 기능을 접목시킨 새로운 개념의 뮤지엄 / 15000원(성인)+13500원(청소년)+12000원(어린이),126.3553138,33.2819835,마을 관광자원,
세계자동차&피아노 박물관,전시관,제주특별자치도 서귀포시 안덕면 상창리 2065-4,연중무휴 / (평일+주말+공휴일)09:00~18:00,인간이 만든 가장 위대한 발명품인 역동적인 자동차와 인간의 감성을 가장 잘 표현해주는 악기 예술의 상징 피아노의 역사와 문화의 모든 것을 볼 수 있는 공간 / 13000원(성인)+12000원(청소년+어린이)+10000원(경로+장애인),126.3497557,33.28383328,마을 관광자원,
카멜리아힐,테마파크,제주특별자치도 서귀포시 안덕면 상창리 271,연중무휴 / (평일+주말+공휴일+하절기)08:30~19:00+(평일+주말+공휴일+동절기)08:30~18:00+(평일+주말+공휴일+간절기)08:30~18:30,80여 개국 500여 품종의 수많은 동백꽃을 만날 수 있는 곳 / 9000원(성인)+7000원(청소년+경로+군인)+6000원(장애인+보훈대상+4.3유족+어린이),126.3700054,33.28963464,마을 관광자원,
소병악오름,오름,제주특별자치도 서귀포시 안덕면 상창리 산 2-1, / ,울창한 자연림의 숲을 이루고 있는 소병악 / ,126.3743069,33.30834791,마을 관광자원,
대병악오름,오름,제주특별자치도 서귀포시 안덕면 상창리 산 2-1, / ,오름 꼭대기 언저리가 마치 여자의 얹은머리 모양과 닮았다고 해서 여진머리오름이라는 이름이 있는 오름 / ,126.3682552,33.30625711,마을 관광자원,
뽀로로 & 타요테마파크,테마파크,제주특별자치도 서귀포시 안덕면 상창리 80,연중무휴 / (평일+주말+공휴일)10:00~18:00,아이들에게 인기만점인 캐릭터 뽀로로와 타요를 만날 수 있는 테마파크 / 30000원(테마파크종합이용권성인)+40000원(테마파크종합이용권어린이)+15000원(타요트램플린존이용권성인+뽀로로파크존이용권성인+Big3이용권)+25000원(타요트램플린존이용권어린이+뽀로로파크존이용권어린이)+20000원(Big5이용권),126.3708258,33.3004187,마을 관광자원,
헬로키티아일랜드,테마파크,제주특별자치도 서귀포시 안덕면 상창리 1963-2,연중무휴 / (평일+주말+공휴일)09:00~18:00,많은 사랑을 받고 있는 헬로키티 전시관 / 14000원(성인)+13000원(청소년)+11000원(어린이),126.3520466,33.29014301,마을 관광자원,
포도뮤지엄,전시관,제주특별자치도 서귀포시 안덕면 상천리 837,화요일 / (평일+주말+공휴일)10:00~18:00,다양성을 존중하고 서로의 생각을 공유하는 열린 문화공간 / 10000원(성인)+6000원(청소년)+4000원(어린이),126.3859735,33.31927503,마을 관광자원,
본태박물관,전시관,제주특별자치도 서귀포시 안덕면 상천리 380,연중무휴 / (평일+주말+공휴일)10:00~18:00,차용된 빛과 물이 조화롭게 어우러진 박물관 / 20000원(성인)+12000원(학생)+10000원(미취학),126.3924802,33.30377225,마을 관광자원,
수풍석 뮤지엄,전시관,제주특별자치도 서귀포시 안덕면 상천리 796,토요일+일요일+공휴일 / (평일)10:00~17:00,"수(水) ∙ 풍(風) ∙ 석(石)뮤지엄은 제주도의 으뜸 요소인 물, 바람, 돌을 각각의 테마로 삼고 있는 공간 / 30000원(성인)+15000(초등학생)",126.3898026,33.29992277,마을 관광자원,
영아리,오름,제주특별자치도 서귀포시 안덕면 상천리 산 19, / ,안덕면 상천리 산24번지 일대에 걸쳐 있는 오름 / ,126.3999625,33.33005226,마을 관광자원,
아라고나이트 고온천,테마파크,제주특별자치도 서귀포시 안덕면 상천리 380-7,매월3번째수요일 / (평일+주말+공휴일)07:00~21:00,국내 유일의 아라고나이트 심층 고온천 / 35000원(성인)+17500원(어린이),126.3921502,33.30296708,마을 관광자원,
무민랜드제주,전시관,제주특별자치도 서귀포시 안덕면 상천리 470-6,연중무휴 / (평일+주말+공휴일)10:00~19:00,무민 이야기가 예술로 살아 숨쉬는 감성 공간 / 15000원(성인)+14000원(청소년)+12000원(어린이),126.381831,33.30651247,마을 관광자원,
신화역사공원,공원,제주특별자치도 서귀포시 안덕면 서광리 산24-8,연중무휴 / (평일+주말+공휴일)00:00~24:00,제주의 신화·역사를 핵심 테마로 한 복합관광단지 / 무료,126.3173224,33.29894392,마을 관광자원,
이상한나라의 앨리스,관광지,제주특별자치도 서귀포시 안덕면 서광리 717-3,연중무휴 / (평일+주말+공휴일)09:00~19:00,국내 최초 거울로 된 미로! 이상한 나라의 앨리스 안은 마치 아주 넓은 공간에 들어온 느낌으로 배경과 함께 즐기면서 미로 탈출을 체험하는 공간 / 6000원(성인)+5000원+(청소년+어린이+성인단체20인이상)+4000원(청소년단체20인이상+어린이단체20인이상),126.3216056,33.28897754,마을 관광자원,
서광리123카페,음식점/카페,제주특별자치도 서귀포시 안덕면 서광리 122,연중무휴 / (평일+주말+공휴일)10:00~21:00,핑크뮬리 관광명소 / 3000원(입장료),126.3336473,33.28589606,마을 관광자원,
소인국테마파크,테마파크,제주특별자치도 서귀포시 안덕면 서광리 725,연중무휴 / (평일+주말+공휴일)09:00~18:00,"소인국 테마파크는 2만여평의 부지에 30여개국 100여점의 유명 건축물 미니어처와 제주도의 돌문화, 민속신앙, 공룡화석 등을 갖춘 복합문화공간으로 국내 최대의 미니어처 테마파크 / 12000원(성인)+9000원(청소년+군인+경로+장애인)+7000원(어린이)",126.3225515,33.29056728,마을 관광자원,
트로이테마농원,테마파크,제주특별자치도 서귀포시 안덕면 서광리 1412,연중무휴 / (평일+공휴일+하절기)09:00~18:00+(평일+공휴일+동절기)09:00~17:00,감귤 밭에서 이색 승마체험을 즐길 수 있는 관광농원 / 12000원(승마체험)+5000원(감귤체험),126.302123,33.29073601,마을 관광자원,
제주신화전설탐방로신나락만나락,관광지,제주특별자치도 서귀포시 안덕면 서광리 산39,연중무휴 / (평일+주말+공휴일)00:00~24:00,32㎞의 곶자왈 숲길과 돌담길로 이뤄진 탐방로 / 무료,126.2994374,33.30472285,마을 관광자원,
제주항공우주박물관,전시관,제주특별자치도 서귀포시 안덕면 서광리 산39,매월2번째월요일 / (평일+주말+공휴일)09:00~18:00,"제주항공우주박물관(JAM)은 미래 첨단산업인 우주와 항공을 테마로 교육과 엔터테인먼트를 접목한 체험형 공간과 전시프로그램, 천문대와 전망대 등을 조성하여 방문객들에게 꿈과 비전을 제시함 / 10000원(성인개인)+9000원(성인단체)+8000원(청소년단체+어린이개인)",126.2996913,33.30419233,마을 관광자원,
오설록티뮤지엄,전시관,제주특별자치도 서귀포시 안덕면 서광리1235-1,연중무휴 / (평일+주말+공휴일)09:00~19:00,국내 최초의 차박물관 / 무료,126.2894877,33.30591733,마을 관광자원,
신화워터파크,테마파크,제주특별자치도 서귀포시 안덕면 서광리 산24,연중무휴 / (평일+주말+공휴일)12:00~20:00,"파도풀, 유수풀을 포함한 18개의 풀과 슬라이드, 6개의 식음 매장, 찜질방까지 갖춘 제주 최대 실내외 워터파크로 3,000명까지 동시 수용할 수 있음 / 60000원(자유이용권)",126.3153914,33.30595681,마을 관광자원,
신화테마파크,테마파크,제주특별자치도 서귀포시 안덕면 서광리 산35-16,연중무휴 / (평일+주말+공휴일)10:00~20:00,한국 토종 애니메이션으로 세계적인 인기를 끈 라바의 세계관이 곳곳에 심어진 정통 테마파크 / 40000원(자유이용권)+17000원(빅3)+6000원(싱글라이드),126.31528,33.30475706,마을 관광자원,
신산오름,오름,제주특별자치도 서귀포시 안덕면 창천리 328, / ,"원형 분화구에서 북쪽으로의 용암유출에 의해 북쪽으로 터진 형태의 말굽형 화구를 이루고 있으며, 오름 사면 대부분이 감귤 밭과 묘지로 이루어져 있음 / ",126.3624799,33.26286001,마을 관광자원,
화순곶자왈생태탐방숲길,관광지,제주특별자치도 서귀포시 안덕면 화순리 2045-5,연중무휴 / (평일+주말+공휴일)00:00~24:00,"하나의 숲에서 북방한계식물과 남방한계식물을 동시에 관찰할 수 곳이며, 총 9km에 걸쳐 분포하나, 기본 코스의 경우 보통 걸음으로 30~40분이며 한 바퀴를 다 둘러볼 수 있음 / 무료",126.3319324,33.2640498,마을 관광자원,
화순금모래해변,해수욕장+해변,제주특별자치도 서귀포시 안덕면 화순리 776-8,연중무휴 / (평일+주말+공휴일)00:00~24:00,"소금막 해변 백사장이 넓게 펼쳐져 있고 뒤로는 산방산이 있으며, 앞으로는 가파도, 마라도, 형제섬 등이 한눈에 펼쳐져, 마치 동양의 산수화를 연상케 할 만큼 아름다운 해변이 있음 / 무료",126.3335908,33.23998555,마을 관광자원,
화순금모래해수욕장 담수풀장,해수욕장+해변,제주특별자치도 서귀포시 안덕면 화순리 851-3,동절기+간절기 / (평일+주말+공휴일)10:00~19:00,"용천수를 활용한 풀장이어서 물이 차갑지만, 소금끼 없는 깨끗한 물에서 바다를 바라보며 물놀이를 즐길 수 있어 인기가 좋음 / 무료",126.3314397,33.24102665,마을 관광자원,
갑선이오름,오름,제주특별자치도 서귀포시 표선면 가시리 산 2, / ,"비고 83m의 말굽형 화구를 지닌 화산체로, 껍질을 미처 벗지 못한 매미의 굼벵이와 그 모습이 닮아 붙여진 명칭 / ",126.7816587,33.36085811,마을 관광자원,
설오름,오름,제주특별자치도 서귀포시 표선면 가시리 산1 , / ,"비고 98m의 말굽형 화구를 지닌 화산체로, 가시리를 통과하는 가마천이 오름 서측 화구를 휘돌아 흐름 / ",126.7695443,33.3710606,마을 관광자원,
따라비오름,오름,제주특별자치도 서귀포시 표선면 가시리 산62, / ,"비고 107m의 복합형 화산체로, 3개의 굼부리가 이어진 모습이 특징 / ",126.7528573,33.38870473,마을 관광자원,
대록산(큰사슴이오름),오름,제주특별자치도 서귀포시 표선면 가시리 산68, / ,"대록산 정상에 올라가면 제주 동부권의 여러 오름을 조망할 수 있으며, 정석비행장에서의 연습용 항공기 이착륙을 볼 수 있는 오름 / ",126.7295424,33.39913515,마을 관광자원,
가문이오름,오름,제주특별자치도 서귀포시 표선면 가시리 산158-2, / ,"말굽형의 분화구를 하고 있는 가문이 오름은 흰 노루귀, 분홍 노루귀 등의 생소한 야생화가 자라고 있으며, 울창한 숲이 우거져 '신령스러운 산'이라는 의미도 포함함 / ",126.688208,33.40213522,마을 관광자원,
구두리오름,오름,제주특별자치도 서귀포시 표선면 가시리 산158-2, / ,"제동목장 관리사무소와 경주마육성목장 사이에 위치한 오름으로써, 꽤 높고 가파른 사면을 이루면서 동쪽으로 깊숙이 패이고, 아래쪽으로 좁게 비탈지면서 위쪽으로는 둥글고 넓적하게 우묵진 말굽형 화구를 이루는 것이 특징 / ",126.6880403,33.40996192,마을 관광자원,
마은이옆,오름,제주특별자치도 서귀포시 표선면 가시리 산158, / ,"비고 53m로 비교적 완만한 편이지만, 서쪽 기슭은 다소 가파르며, 전사면은 자연림이 숲을 이루고 있고, 오름 주위에는 복수초군락과 작은 계곡이 있음 / ",126.6642873,33.3917482,마을 관광자원,
번널오름,오름,제주특별자치도 서귀포시 표선면 가시리 산10, / ,비고 62m로 정상에 오르면 가시리 조랑말체험공원의 풍경을 바라볼 수 있는 오름 / ,126.7458996,33.37432227,마을 관광자원,
병곳오름,오름,제주특별자치도 서귀포시 표선면 가시리 산8, / ,"비고 113m 말굽형 화구를 지닌 화산체로서, 병고악이라고도 불리는데, 이는 병의 주둥이와 같다 하여 붙여진 명칭 / ",126.7483747,33.36703884,마을 관광자원,
붉은오름,오름,제주특별자치도 서귀포시 표선면 가시리 산158, / ,"비고 129m 원형화구를 지닌 화산체로서, 고려시대 삼별초 항쟁에서 여몽연합군과 싸우다 흘린 피가 흙의 색처럼 붉다고 하여 붙여진 명칭이라는 설이 있음 / ",126.6795307,33.39986358,마을 관광자원,
소록산,오름,제주특별자치도 서귀포시 표선면 가시리 산 87-1, / ,"비고 102m 말굽형 화구를 지닌 화산체로서, 소록산 알봉에서는 정석비행장의 풍경을 볼 수 있음 / ",126.7227834,33.40057859,마을 관광자원,
여문영아리,오름,제주특별자치도 서귀포시 표선면 가시리 산145, / ,"비고 134m 말굽형 화구를 지닌 화산체로서, 신령스러운 여인이 머리를 풀고 앉아있는 모습이라 해서 영아악이라고도 불림 / ",126.6942341,33.38266068,마을 관광자원,
쳇망오름,오름,제주특별자치도 서귀포시 표선면 가시리 산158-2, / ,"비고 55m 말굽형 화구를 지닌 화산체로서, 오름이 동쪽의 가시천을 바라보는 형국이라고 하여 한자 표기로 ‘천망악(川望岳)’이라고도 함 / ",126.6919412,33.39554247,마을 관광자원,
정석항공관,전시관,제주특별자치도 서귀포시 표선면 가시리 3795-2,월요일+명절 / (평일+주말+공휴일)09:00~17:00,1993 대전 엑스포 당시 대한항공의 미래항공관을 엑스포가 끝나자 1998년에 제주도 정석비행장 옆으로 그대로 옮긴 항공박물관 / 무료,126.7224719,33.39414938,마을 관광자원,
조랑말체험공원,테마파크,제주특별자치도 서귀포시 표선면 가시리 3149-33,연중무휴 / (평일+주말+공휴일)09:00~18:00,"제주의 말 문화를 쉽고 재밌게 이해하고 체험할 수 있는 조랑말체험공원은 600년 목축 문화의 역사를 녹여 만든 조랑말박물관, 너른승마체험장, 마음카페 등을 운영하고 있음 / 12000원(승마체험A코스)+25000원(승마체험B코스)+50000원(목장산책+트랙)+100000원(1시간체험)+3000원(먹이주기체험1봉지)",126.7362876,33.38310427,마을 관광자원,
붉은오름자연휴양림,테마파크,제주특별자치도 서귀포시 표선면 가시리산 158,연중무휴 / (평일+주말+공휴일)09:00~18:00,"천연숲이 울창한 휴양지로 해맞이 숲길을 따라 말찻오름 정상에서 떠오르는 일출을 감상할 수 있으며, 목재문화체험장, 아로마 테라피실, 편백나무 체험실을 체험해 볼 수 있음 / 1000원(성인개인)+600원(청소년개인+군인)+800원(성인단체)+500원(청소년단체+군인)",126.6753607,33.40149368,마을 관광자원,
장자오름,오름,제주특별자치도 서귀포시 표선면 성읍리 2759-1, / ,노지 오름쪽을 머리로 남동으로 길게 누운 모습으로 세 단계의 기복으로 봉우리를 이루고 있는 오름 / ,126.7756235,33.38891703,마을 관광자원,
영주산,오름,제주특별자치도 서귀포시 표선면 성읍리 산15, / ,"비고 176m의 말굽형 화구를 지닌 화산체로서, 높은 비고를 가졌기 때문에 정상에서의 조망권이 매우 좋음 / ",126.7962391,33.4045686,마을 관광자원,
성읍무형문화재전수관,전시관,제주특별자치도 서귀포시 표선면 성읍리 775-1, / ,성읍민속마을의 무형문화재전시관 / ,126.8003108,33.38450521,마을 관광자원,
성읍랜드,테마파크,제주특별자치도 서귀포시 표선면 성읍리 2045-1,연중무휴 / (평일+주말+공휴일)10:00~17:30,"승마, 카트 등의 레저체험이 가능한 테마파크 / 25000원(카트1인용)+35000원(카트2인용)+30000원(승마15분둘레코스+ATV15분기본코스)+40000원(승마20분더블코스)+60000원(승마30분고급외승트래킹)+120000원(승마1시간고급외승트래킹)+50000원(ATV30분고급투어코스)",126.7869282,33.39858877,마을 관광자원,
낙타트래킹,관광지,제주특별자치도 서귀포시 표선면 성읍리 2684, / (평일+주말+공휴일)09:00-17:00,낙타트래킹 체험 및 낙타먹이주기 체험이 가능한 테마파크 / 15000원(성인+청소년+어린이)+무료(36개월미만보호자동반시),126.7786275,33.40269688,마을 관광자원,
모지오름,오름,제주특별자치도 서귀포시 표선면 성읍리산 22, / ,"비고 86m의 말굽형 화산체이며, 굼부리 안에 알오름이 있음 / ",126.7681708,33.39360076,마을 관광자원,
좌보미오름,오름,제주특별자치도 서귀포시 표선면 성읍리 산6, / ,"비고 112m의 말굽형(남향)화구를 지닌 화산체로서, 5개의 큰 봉우리가 서로 연결되어 하나의 기형적 형태의 커다란 산체를 형성한 형태임 / ",126.8067847,33.43609462,마을 관광자원,
백약이오름,오름,제주특별자치도 서귀포시 표선면 성읍리 산1, / ,약초가 많이 자생하고 있다고 하여 백약이오름 / ,126.7897733,33.43679951,마을 관광자원,
개오름,오름,제주특별자치도 서귀포시 표선면 성읍리 2974, / ,모양이 개모양 같다고 하여 붙여진 개오름 / ,126.7718543,33.42257873,마을 관광자원,
목장카페 드르쿰다,테마파크,제주특별자치도 서귀포시 표선면 성읍리 2873,연중무휴 / (평일+주말+공휴일)10:00~18:00,레저와 카페를 모두 한 곳에 담은 초대형 목장카페 / 9000원(사격30발)+30000원(승마B코스)+38000원(승마A코스)+15000원(카트1인승+승마C코스),126.770346,33.40946197,마을 관광자원,
다이다믹메이즈 제주,테마파크,제주특별자치도 서귀포시 표선면 성읍리 2381,공휴일 / (평일+주말)09:00~18:00,미로속에서 차원을 넘나들며 역동적인 체험을 즐길 수 있는 실내 프로그램 / 14000원(다이나믹메이즈Ep.3)+10000원(레벨2)+19000원(패키지)+9000원(도민다이나믹메이즈Ep.3)+8000원(도민레벨2)+13000원(도민패키지),126.7852768,33.39913816,마을 관광자원,
매오름,오름,제주특별자치도 서귀포시 표선면 세화리 산 7,연중무휴 / ,"오름의 생김새가 날아오르기 위해 잔뜩 웅크린 매의 형상을 닮았다 하여 매봉, 매오름이라고 부름, 오름에는 주로 소나무와 삼나무가 조림되어 있고 최근에는 산책로가 새로 개설되고 체력단련 기구도 설치되어 매봉을 오르는 등산객의 수가 점차 늘어나고 있음 / 무료",126.8136028,33.31763213,마을 관광자원,
토산봉,오름,제주특별자치도 서귀포시 표선면 토산리 산 13,연중무휴 / ,토산리에 있는 도보로 올라가기 좋은 오름 / 무료,126.77427,33.32200741,마을 관광자원,
가세오름,오름,제주특별자치도 서귀포시 표선면 토산리 산 5,연중무휴 / ,탐방의 소소한 재미를 주는 가세오름 / 무료,126.7813272,33.33014595,마을 관광자원,
알오름,오름,제주특별자치도 서귀포시 표선면 토산리 산 11,연중무휴 / ,올레 1코스의 한 부분으로 관광객들이 자주 찾는 가볍게 걷기 좋은 오름 / 무료,126.7776999,33.32788094,마을 관광자원,
제주민속촌,관광지,제주특별자치도 서귀포시 표선면 표선리 40-1,연중무휴 / (평일+주말+공휴일)08:30~19:00,"제주민속촌은 제주의 문화유산을 원형 그대로 보존하기 위해 19세기 기준 연대로 산촌, 중산간촌, 어촌, 토속신앙을 비롯하여 제주영문과 유배소 등을 전문가의 고증을 통해 구성한 박물관임, 특히 100여 채에 달하는 옛 제주 사람들이 실제 거주했던 가옥들을 전시되어 있으며, 이 가옥 곳곳에서는 민속공예 장인들이 옛 솜씨를 되살리기 위해 노력하고 있음 / 12000원(성인)+10000원(경로)+9000원(청소년+군경)+8000원(어린이)",126.8423107,33.32237839,마을 관광자원,
제주허브동산,테마파크,제주특별자치도 서귀포시 표선면 표선리 2608,연중무휴 / (평일+주말+공휴일)09:00~22:00,"2만6천평의 허브동산 속에 약 150여 종의 허브와 우리 산하의 야생화가 채워진 각양각색의 정원과 작은 동산들, 그리고 2,000여 평의 체험감귤 농장 등 다양한 형태의 테마공원이 조성되어 있음, 또한 허브동산을 휘어감은 산책로, 허브샵, 카페 등 연인들의 최고 데이트코스로, 가족사랑의 공간으로 손색이 없음 / 12000원(성인)+10000원(청소년)+9000원(어린이)",126.8151813,33.33039253,마을 관광자원,
표선해수욕장,해수욕장+해변,제주특별자치도 서귀포시 표선면 표선리,연중무휴 / ,원형의 백사장을 가진 야영에 적합한 해수욕장 / 무료,126.8374227,33.32749334,마을 관광자원,
세계술박물관,전시관,제주특별자치도 서귀포시 표선면 하천리 1814-1,연중무휴 / (평일+주말+공휴일)09:00~18:00,"세계 술 박물관은 그동안 만들어졌던 다양한 종류의 술들을 보존하며, 그 술들에 관해 한 공간에서 볼 수 있는 박물관 / 7000원(성인)+5000원(경로+청소년)+2000원(초등학생)",126.8175918,33.35396909,마을 관광자원,
쇠소깍,자연,제주특별자치도 서귀포시 하효동 990-1,연중무휴 / (평일+주말+공휴일+하절기)09:00~18:00+(평일+주말+공휴일+동절기)09:00~17:00,물놀이와 레저체험을 할 수 있는 계곡 / 8000원(테우성인)+5000원(테우어린이)+20000원(전통조각배성인)+25000원(전통조각배 성인2인+어린이1인),126.6224481,33.25423312,마을 관광자원,
쇠소깍 해변,해수욕장+해변,제주특별자치도 서귀포시 하효동 997-3,동절기+간절기 / (평일+주말+공휴일+하절기)00:00~24:00,쇠소깍 근처의 해수욕장(7~8월 운영) / 무료,126.6229864,33.25132924,마을 관광자원,
서귀포 치유의숲,자연,제주특별자치도 서귀포시 호근동 산 4,연중무휴 / (평일+주말+공휴일+하절기)09:00~18:00+(평일+주말+공휴일+동절기)09:00~17:00,산림의 다양한 환경요소를 활용할 수 있도록 조성한 산림 / 1000원(성인)+600원(청소년+군인)+800원(성인단체),126.5278876,33.29192486,마을 관광자원,
각시바우오름,오름,제주특별자치도 서귀포시 호근동 2112,연중무휴 /  ,"정상부는 서귀포 앞바다를 전망 가능, 주변 좋은 경치로 예로부터 선비들이 풍류를 즐긴 곳 / 무료",126.5261284,33.27674835,마을 관광자원,
돔베낭골,자연,제주특별자치도 서귀포시 호근동,연중무휴 / ,돔베를 닮은 해안절벽 / 무료,126.5330891,33.23950366,마을 관광자원,
제주김녕미로공원,공원,제주특별자치도 제주시 구좌읍 김녕리 산16,연중무휴 / (평일+주말)09:00~17:50,"우리나라 최초의 미로공원, 제주도를 상징하는 독창적인 디자인을 고안하여 남녀노소 즐길 수 있는 공간 / 6600원(성인개인)+5500원(청소년개인+경로개인+유공자개인+경증장애인개인+제주도민개인+사병군인개인+성인단체)+4400원(어린이개인+청소년단체+경로단체+유공자단체+경증장애인단체+제주도민단체+사병군인단체)+무료(중증장애인+75세이상)",126.7722364,33.53652873,마을 관광자원,
김녕사굴,자연,제주특별자치도 제주시 구좌읍 김녕리 201-4, / ,1962년 12월 3일 만장굴과 함께 천연기념물 제98호로 지정됨 / ,126.7754742,33.54388265,마을 관광자원,
제주어른이집,관광지,제주특별자치도 제주시 구좌읍 김녕리 2540,월요일 / (평일+주말)10:00~22:00,어른 아이 상관없이 누구나 즐길 수 있는 복합놀이문화공간 / ,126.7439009,33.55264572,마을 관광자원,
김녕금속공예벽화마을,관광지,제주특별자치도 제주시 구좌읍 김녕리 4026,연중무휴 / (평일+주말+공휴일)00:00~24:00,‘다시방 프로젝트’에 의해 10명의 예술가들이 버려지는 금속 제품과 제주의 현무암을 이용하여 벽화 마을로 탈바꿈함 / ,126.7476148,33.55763916,마을 관광자원,
묘산봉오름,오름,제주특별자치도 제주시 구좌읍 김녕리 2723, / ,고양이가 누워있는 것처럼 보이는 오름 / ,126.744681,33.54366746,마을 관광자원,
입산봉(삿갓오름),오름,제주특별자치도 제주시 구좌읍 김녕리 1037-2, / ,산모양이 마치 삿갓을 뒤집어 놓은 것과 같이 보인다 하여 삿갓오름 또는 입산봉이라 불림 / ,126.7582016,33.54756695,마을 관광자원,
청굴물,자연,제주특별자치도 제주시 구좌읍 김녕리 1296-1, / ,용천수로써 김녕 해수욕장과 김녕 금속공예마을 사이에 위치한 물놀이 장소 / ,126.7511531,33.55829321,마을 관광자원,
김녕성세기해변인증센터,기타,제주특별자치도 제주시 구좌읍 김녕리 497-4, / ,김녕해수욕장 입구 쪽 주차장에 위치한 자전거여행 인증센터 / ,126.759923,33.55685446,마을 관광자원,
김녕항,항구,제주특별자치도 제주시 구좌읍 김녕리 4211, / ,맑고 푸른 바다와 다양한 형태의 기암절벽이 조화를 이루고 있는 경관을 볼 수 있는 곳 / ,126.7373134,33.55977253,마을 관광자원,
김녕해수욕장,해수욕장+해변,제주특별자치도 제주시 구좌읍 김녕리 497-4,동절기+간절기 / ,코발트 빛 바다와 질 좋은 모래사장 / ,126.7593156,33.5574303,마을 관광자원,
세기알 해변,해수욕장+해변,제주특별자치도 제주시 구좌읍 김녕리 1200-5, / ,김녕해수욕장으로부터 500m이내에 스노클링 장소로 유명한 곳 / ,126.7555049,33.55789842,마을 관광자원,
덕천리 팔자 좋아 길,기타,제주특별자치도 제주시 구좌읍 덕천리 산77-1, / ,"웃못연못을 시작으로 숲터널, 사근이오름을 거쳐 상덕천삼거리, 북오름굴 고사리 밭, 주체오름까지 돌아보고 다시 삼덕천삼거리로 돌아오는 8자 모양의 길 / ",126.7462832,33.4826077,마을 관광자원,
북오름,오름,제주특별자치도 제주시 구좌읍 덕천리 산 69, / ,"제주특별자치도 제주시 구좌읍 덕천리에 있는 오름, 명칭은 오름의 형상이 북을 닮은 데에서 유래함 / ",126.7401714,33.48728788,마을 관광자원,
어대오름,오름,제주특별자치도 제주시 구좌읍 덕천리 509-1, / ,"기생 화산, 제주특별자치도 제주시 구좌읍 덕천리에 있는 오름, 어두름 또는 어대악(御帶岳, 魚岱岳)이라고도 함 / ",126.7608319,33.49564902,마을 관광자원,
제주바다체험장,관광지,제주특별자치도 제주시 구좌읍 동복리 608-3, / ,다양한 해산물 직접 잡고 만질 수 있음. 실내에 위치하여 날씨에 상관없음 / ,126.7217064,33.55474587,마을 관광자원,
동복관광체험어장,관광지,제주특별자치도 제주시 구좌읍 동복리 687-10, / ,직접 해산물을 채취해 볼 수 있는 체험장. 잡은 해산물을 가져가서 요리도 가능함 / ,126.718771,33.55590229,마을 관광자원,
해녀박물관,전시관,제주특별자치도 제주시 구좌읍 상도리 3204-1,월요일 / (평일+주말)09:00~17:00,바당의 어멍 제주 해녀의 삶을 느낄 수 있는 곳 / 1100원(개인25세이상64세까지)+800원(단체25세이상64세까지)+500원(개인13세이상24세까지)+300원(단체13세이상24세까지)+무료(어린이개인+어린이단체),126.8628811,33.52351244,마을 관광자원,
마이시크릿포레스트,공원,제주특별자치도 제주시 구좌읍 상도리 산 46-3, / ,옛 쓰레기 매립장이 사람들의 따뜻한 참여와 함께 신선한 향이 가득하게 재탄생한 숲이며 이니스프리가 관리함 / ,126.8694193,33.50285255,마을 관광자원,
다랑쉬굴,관광지,제주특별자치도 제주시 구좌읍 세화리 2608-3, / ,"4·3사건 당시 하도리, 종달리 주민 11명이 피신해 살다가 굴이 발각되어 집단희생 당한 곳 / ",126.8313463,33.4679956,마을 관광자원,
다랑쉬오름,오름,제주특별자치도 제주시 구좌읍 세화리 산6 , / ,"산봉우리의 분화구가 마치 달처럼 둥글게 보인다 하여 다랑쉬(도랑쉬, 달랑쉬)라 불렸다는 설과, 높다는 뜻의 '달'에 봉우리의 뜻을 가진 '수리(쉬)'가 합쳐져 불려진 이름이라는 주장이 있는 오름 / ",126.8215343,33.47768541,마을 관광자원,
세화해변,해수욕장+해변,제주특별자치도 제주시 구좌읍 세화리 1-1, / ,인생 사진을 남길 수 있는 인생 바다 / 무료,126.8602546,33.52514366,마을 관광자원,
SN박물관(스누피가든),공원,제주특별자치도 제주시 구좌읍 송당리 2303-3,연중무휴 / (하절기)09:00~19:00+(동절기)09:00~18:00,피너츠 에피소드를 자연 속에서 직접 경험하면서 휴식을 통한 위로를 얻는 곳 / 18000원(성인개인)+15000원(청소년개인+성인단체)+13000원(청소년단체)+12000원(어린이개인)+11000원(어린이단체)+9000원(장애인+국가유공자)+20%할인(제주도민+경로65세이상),126.7782184,33.4441771,마을 관광자원,
비밀의 숲,자연,제주특별자치도 제주시 구좌읍 송당리 2173,연중무휴 / (평일+주말)09:00~18:30,안돌오름 안에 있는 사유지에서 즐기는 산림욕 / 3000원(성인)+2000원(65세이상)+1000원(7세이하)+무료(3세이하),126.7549294,33.45360692,마을 관광자원,
솔트리수목원,테마파크,제주특별자치도 제주시 구좌읍 송당리 산 126-1,월요일 / (하절기)10:00~18:00+(동절기)09:30~17:30,55년 넘게 가꾼 만 그루가 넘는 나무로 꾸민 수목원 / 20000원(성인)+무료(36개월이하),126.7441828,33.43487908,마을 관광자원,
안돌오름,오름,제주특별자치도 제주시 구좌읍 송당리 산 66-2,연중무휴 / (평일+주말)09:00~18:30,"말굽형 화구를 이루면서, 화구 안사면의 골이 패인 곳에서만 유일하게 나무가 우거져 자연림의 숲을 이루고 있는 곳 / 3000원(1인당)",126.7558722,33.45783281,마을 관광자원,
밧돌오름,오름,제주특별자치도 제주시 구좌읍 송당리 산 66-1 , / ,"오름 전체에 초지가 있어서 마소들이 있으며, 소나무와 멍게덩굴 등이 자라고 있음. 등성이에도 여러 종류의 야생화가 계절에 따라 피어남 / ",126.7600727,33.46071488,마을 관광자원,
아부오름,오름,제주특별자치도 제주시 구좌읍 송당리 2263, / ,오름 둘레까지 어렵지 않게 오를 수 있고 제주오름의 모습을 가깝게 느낄 수 있어 최근 각광 받는 곳 / ,126.7772123,33.44858192,마을 관광자원,
거슨새미오름,오름,제주특별자치도 제주시 구좌읍 송당리 산 145, / ,"해발 380m이며 정상에는 경방 초소가 있고, 전망이 좋은 곳 / ",126.7601311,33.4502293,마을 관광자원,
높은오름,오름,제주특별자치도 제주시 구좌읍 송당리 산 213-1, / ,"주변 일대에서 유일하게 고도가 400m이상 되는 오름으로 능선미가 선하고, 주위에 산재 된 뭇 오름을 압도하는 느낌을 주어 높은오름이라고 불리는 곳 / ",126.7930685,33.45641056,마을 관광자원,
돛오름,오름,제주특별자치도 제주시 구좌읍 송당리 산 3, / ,"비자림 서남쪽으로 이어져 있는 오름으로 풍만한 산체를 이루며, 산정부에서 북동쪽으로 얕게 골이 패어 있는 원형 분화구를 가진 오름 / ",126.8015043,33.48107879,마을 관광자원,
당오름,오름,제주특별자치도 제주시 구좌읍 송당리 산 199-1, / ,전체적으로 나직하고 둥그스름한 몸집에 북서쪽으로 침식된 말굽형 화구를 지닌 화산체 / ,126.7786077,33.46659854,마을 관광자원,
비치미오름,오름,제주특별자치도 제주시 구좌읍 송당리 산 255-1, / ,북동향으로 벌어진 말굽형 화구를 가지고 있는 오름 / ,126.7632392,33.42755752,마을 관광자원,
민오름,오름,제주특별자치도 제주시 구좌읍 송당리 산 156, / ,말굽형 화구를 이루면서 두 봉우리가 서남 동북방향으로 서로 마주보기 있는 형태의 오름 / ,126.7627906,33.43633836,마을 관광자원,
안친오름,오름,제주특별자치도 제주시 구좌읍 송당리 880-1, / ,"높이 192m, 둘레 924m, 총면적 4만 6443m² 규모의 기생 화산 / ",126.7859609,33.47846757,마을 관광자원,
성불오름,오름,제주특별자치도 제주시 구좌읍 송당리 산 266, / ,송당리에 위치한 소화산체 / ,126.7499913,33.42212636,마을 관광자원,
문석이오름,오름,제주특별자치도 제주시 구좌읍 송당리 산234 , / ,가파른 북쪽 비탈면 위쪽은 억새와 잡초로 덮여 있고 아래쪽은 인공적으로 심은 삼나무로 덮여 있음 / ,126.7945173,33.44641863,마을 관광자원,
말방목공원,공원,제주특별자치도 제주시 구좌읍 송당리 2458, / ,"산책로, 말 먹이주기 체험 등을 무료로 할 수 있는 곳 / ",126.7848137,33.4419933,마을 관광자원,
동쪽송당,공원,제주특별자치도 제주시 구좌읍 송당리 2635-3,연중무휴 / (평일+주말)09:00~18:00,창업주 강동화회장이 도민과 관광객을 위해 개원한 종합공원 / ,126.731196,33.43548274,마을 관광자원,
만장굴,자연,제주특별자치도 제주시 구좌읍 월정리 산 41-5,매월1번째수요일 / (평일+주말+공휴일)09:00~18:00,천연 기념물 제98호로 수십만 년 전에 형성된 동굴로서 내부의 형태와 지형이 잘 보존되어 있는 제주도의 용암동굴 / 4000원(성인개인)+3000원(성인단체)+2000원(청소년개인+군인개인+어린이개인)+1500원(청소년단체+군인단체+어린이단체),126.7713399,33.52844651,마을 관광자원,
월정리해수욕장,해수욕장+해변,제주특별자치도 제주시 구좌읍 월정리 33-3, / ,제주도의 동쪽에 위치하고 있는 마을인 월정리의 에메랄드 빛의 풍경화처럼 아름다운 해변 / 무료,126.7958051,33.55646353,마을 관광자원,
종달고망난돌쉼터,공원,제주특별자치도 제주시 구좌읍 종달리 112-4, / ,"종달해안도로를 지나다 하도해수욕장에 도달할 때 쯤 고망난돌쉼터를 만날 수 있으며, 빠름을 좋아하는 사람들에게는 그 모습을 드러내지 않는 곳이기도 함. 지나치기 쉬운 숨은 명소 / ",126.9068362,33.51019382,마을 관광자원,
용눈이오름,오름,제주특별자치도 제주시 구좌읍 종달리 산 28, / ,"능선의 아름다움을 뽐내는 오름, 김영갑 작가가 사랑한 오름. 2023년 1월 31일까지 자연휴식년제(출입제한)을 시행 / ",126.8326771,33.45988068,마을 관광자원,
손지오름,오름,제주특별자치도 제주시 구좌읍 종달리 산 52, / ,한라산의 축소판이라 해서 한라산의 손자라는 의미로 ‘손지오름’이라 불리는 오름 / ,126.8194209,33.45528416,마을 관광자원,
지미봉,오름,제주특별자치도 제주시 구좌읍 종달리 산 3-1, / ,종달마을 입구 동쪽 방향에 위치한 오름으로 올레21코스에 자리해 관광객이 많은 찾는 곳 / ,126.9024383,33.49931485,마을 관광자원,
동검은이오름,오름,제주특별자치도 제주시 구좌읍 종달리 산 70 , / ,"일반적인 오름들처럼 둥글고 매끄러운 모습이 아니라 능선이 끊어질 듯 이어지며, 멀리서 보면 여러 개의 오름인 듯 보이는 모양을 하고 있음 / ",126.8036695,33.44894445,마을 관광자원,
종달리해변,해수욕장+해변,제주특별자치도 제주시 구좌읍 종달리 565-72, / ,비교적 잘 알려지지 않아 조용한 해변 / ,126.909875,33.4963249,마을 관광자원,
메이즈랜드,테마파크,제주특별자치도 제주시 구좌읍 평대리 3322,연중무휴 / (평일+주말)09:00~18:00,"돌, 바람, 여자를 테마로 조성된 미로공원 / 11000원(성인개인)+9000원(성인단체+청소년개인)+8000원(어린이개인)+7000원(청소년단체)+6500원(어린이단체)+5000원(장애인개인)+3000원(장애인단체)",126.8008746,33.48825681,마을 관광자원,
평대리해변,해수욕장+해변,제주특별자치도 제주시 구좌읍 평대리 1994-20, / ,"월정리해변과 세화해변 사이에 자리하고 있으며, 동쪽바다의 정취를 호젓하게 즐길 수 있는 곳 / ",126.8408627,33.53352542,마을 관광자원,
비자림,테마파크,제주특별자치도 제주시 구좌읍 평대리 산 15,연중무휴 / (평일+주말)09:00~18:00,"천연기념물 제374호. 구좌읍 평대리에서 서남쪽으로 6km 되는 지점에 448,165㎡ 면적에 500∼800년생 비자나무 2,570그루가 밀집하여 이룬 군락 / 3000원(성인개인)+2500원(성인단체)+1500원(청소년개인+어린이개인)+1000원(청소년단체+어린이단체)",126.8099865,33.49040792,마을 관광자원,
문주란 자생지,관광지,제주특별자치도 제주시 구좌읍 하도리 산 85, / ,토끼섬에 있는 우리나라 유일의 문주란 자생지로 천연기념물 19호 / ,126.9026747,33.5237462,마을 관광자원,
하도리 철새도래지,공원,제주특별자치도 제주시 구좌읍 하도리 53-2, / ,월동하러 가는 철새들의 은신처 / ,126.8963179,33.51041988,마을 관광자원,
하도해변,해수욕장+해변,제주특별자치도 제주시 구좌읍 하도리 52-1, / ,수심이 얕아 어린아이들도 물놀이 하기 좋은 동쪽의 작은 해변 / ,126.8992316,33.51305497,마을 관광자원,
둔지봉,오름,제주특별자치도 제주시 구좌읍 한동리 산 40, / ,​‘둔지’는 제주 방언으로 ‘평지보다 조금 높은 곳’을 가리키는 말로 제주도를 한눈에 내려다볼 수 있음 / ,126.7954013,33.50274116,마을 관광자원,
고내리 다락쉼터,공원,제주특별자치도 제주시 애월읍 고내리 462,연중무휴 / (평일+주말+공휴일)00:00~24:00,고내리 다락쉼터는 제주시 애월읍 고내리 해안가에 있는 조그마한 공원이자 쉼터 / 무료,126.3408735,33.47052109,마을 관광자원,
고내리포구,항구,제주특별자치도 제주시 애월읍 고내리 1156-4,연중무휴 / (평일+주말+공휴일)00:00~24:00,제주올레 15코스의 시작점이기도 한 고내리포구의 앞바다에는 고깃배가 정박해 있어 소박한 제주 바다의 풍경을 만나볼 수 있으며 방파제에서는 낚시도 가능 / 무료,126.337548,33.46716299,마을 관광자원,
문서프,해수욕장+해변,제주특별자치도 제주시 애월읍 곽지리 1635,연중무휴 / (서핑강습)07:00~19:00+(서핑강습문의)10:00~20:00+(카페)09:00~20:00,아름다운 에메랄드 빛 바다에서 여유롭게 즐기는 서핑 / 50000원(2시간풀강습)+70000원(3시간풀강습)+60000원(자유서핑패키지)+30000원(3시간보드렌탈)+50000원(종일보드렌탈)+10000원(슈트렌탈),126.308397,33.45006976,마을 관광자원,
곽지해수욕장야영장,테마파크,제주특별자치도 제주시 애월읍 곽지리 1565,연중무휴 / ,바다 뷰와 야자수 그늘이 있는 캠핑장 / 10000원,126.3052494,33.45028883,마을 관광자원,
곽지해수욕장,해수욕장+해변,제주특별자치도 제주시 애월읍 곽지리 1565,동절기+간절기 / (평일+주말+공휴일)00:00~24:00,시원한 용천수를 뿜어내는 노천탕이 있는 곳 / 무료,126.3046716,33.45057861,마을 관광자원,
구엄리돌염전,자연,제주특별자치도 제주시 애월읍 구엄리 1254-1,연중무휴 / ,구엄리의 포구를 지나면 만나는 구엄리 돌염전은 넓게 드러누운 현무암 위에 소금을 생산하던 장소 / 무료,126.3764913,33.48342901,마을 관광자원,
갑자기 히어로즈 벽화길,관광지,제주특별자치도 제주시 애월읍 금성리 569,연중무휴 / (평일+주말+공휴일)00:00~24:00,제주도 마을 곳곳의 민원을 해결해주는 취지의 프로그램인 갑자기 히어로즈에서 진행한 마을 꾸미기 프로젝트의 일화로 제주시 애월읍 금성리 마을 해안도로에 조성된 벽화 거리 / 무료,126.3001742,33.44744735,마을 관광자원,
금성포구,항구,제주특별자치도 제주시 애월읍 금성리 573-1,연중무휴 / (평일+주말+공휴일)00:00~24:00,"애월읍 금성천 하구에 있는 오래된 포구로, 옛날 마한시대 이전부터 육지와 중국을 왕래하는 선박이 드나들었던 유래가 깊은 포구 / 무료",126.2982298,33.44683455,마을 관광자원,
납읍난대림 금산공원,공원,제주특별자치도 제주시 애월읍 납읍리 1457-1,연중무휴 / (평일+주말+공휴일)00:00~24:00,자연림의 원형을 보존하고 있는 천연기념물로서 울창한 상록수림이 특징 / 무료,126.3301651,33.43367442,마을 관광자원,
풋감마을 소길리 농어촌체험마을,관광지,제주특별자치도 제주시 애월읍 소길리 650-1, / (평일+주말)10:00~16:00,조용한 소길리에서 즐기는 풋감 천연염색체험 및 마을 탐방로 / 10000원,126.3798639,33.44005921,마을 관광자원,
물뫼힐링팜,테마파크,제주특별자치도 제주시 애월읍 수산리 357-6, / ,"자연 및 농업과 함께 상생하며 다양한 치유 프로그램을 운영하고 있는 치유농장 / 가격은 프로그램, 시간에 따라 다름",126.3964706,33.46454046,마을 관광자원,
중엄리새물,관광지,제주특별자치도 제주시 애월읍 신엄리 2719-3, / ,제주 올레길 16코스로 애월해안로에 위치하고 있다. 주상절리와 어우러진 해안 절경이 뛰어난 곳 / 무료,126.369322,33.47835963,마을 관광자원,
남두연대,관광지,제주특별자치도 제주시 애월읍 신엄리 2780-1, / ,아름다운 주변에 둘러쌓인 해안 절벽 위에 세워진 연대 / 무료,126.3584369,33.47908138,마을 관광자원,
신엄포구,항구,제주특별자치도 제주시 애월읍 신엄리 2841-13, / ,애월해안도로와 올레길 16코스 내에 위치한 포구 / 무료,126.352213,33.4735454,마을 관광자원,
애월연대,관광지,제주특별자치도 제주시 애월읍 애월리 1975, / ,횃불과 연기를 이용하여 정치·군사적으로 급한 소식을 전하던 통신수단 애월 연대 / 무료,126.313004,33.465656,마을 관광자원,
한담해변,해수욕장+해변,제주특별자치도 제주시 애월읍 애월리, / ,해안길을 따라 산책할 수 있는 제주의 숨은 비경 / 무료,126.310043,33.46223680748,마을 관광자원,
제주빅볼랜드,관광지,제주특별자치도 제주시 애월읍 어음리 산3,연중무휴 / (평일+주말+공휴일)09:30~18:30,커다란 공안에 들어가 언덕을 굴러 내려오는 레포츠 / 35000원(성인+빅조브)+30000원(조브),126.3768643,33.38900799,마을 관광자원,
아르떼뮤지엄 제주,전시관,제주특별자치도 제주시 애월읍 어음리 1503,연중무휴 / (평일+주말+공휴일)10:00~20:00,국내최대몰입형 미디어아트전시관 / 17000원(성인)+ 13000원(청소년)+10000원(어린이),126.345002,33.39669863,마을 관광자원,
큰바리메,오름,제주특별자치도 제주시 애월읍 어음리 산 21, / ,오름의 모양이 바리를 닮은 기생화산 / 무료,126.388043,33.37710974,마을 관광자원,
빌레못동굴,자연,제주특별자치도 제주시 애월읍 어음리 1391 , / ,"천연기념물 제342호이며 총 길이 11,749m의 세계에서 가장 긴 동굴이며 출입금지장소 / ",126.3504243,33.40441053,마을 관광자원,
제주안전체험관,관광지,제주특별자치도 제주시 애월읍 어음리 41-4,월요일 / (평일+주말)09:00~18:00,쉽게 재난을 경험하고 극복하는 방법을 배울 수 있도록 다양한 안전체험 프로그램을 갖추고 있음 / 무료,126.373405,33.39419821,마을 관광자원,
9.81파크,테마파크,제주특별자치도 제주시 애월읍 어음리 산131,연중무휴 / (평일+주말+공휴일)09:00~18:00,한라산과 비양도를 품은 푸른 바다를 마주하는 실외 공간과 감각적인 실내 공간을 모두 경험할 수 있는 테마파크 / 어트랙션마다 요금 상이,126.3667693,33.39029938,마을 관광자원,
렛츠런파크 제주,테마파크,제주특별자치도 제주시 애월읍 유수암리 1206,월요일+화요일 / (평일+주말)09:30~18:00,천연기념물 제347호인 ‘제주마’의 보호 및 육성을 위해 1990년 개장된 테마공원 / 2000원(성인+장애인)(금요일+토요일+일요일)+무료(수요일+목요일),126.3977283,33.40824654,마을 관광자원,
제주승마공원,관광지,제주특별자치도 제주시 애월읍 유수암리 1175,연중무휴 / (평일+주말+공휴일)09:00~18:00,국내최대 외승 트래킹 국내 최초 야외 야간 승마 및 전문 승마체험 및 회원제 승마장 / 66000원(곶자왈B)+44000원(곶자왈A),126.4062374,33.40581267,마을 관광자원,
큰노꼬메오름,오름,제주특별자치도 제주시 애월읍 유수암리 산138, / ,멋지고 시원한 전망과 바람에 일렁이는 억새를 만날 수 있는 곳 / 무료,126.4114027,33.38907202,마을 관광자원,
족은노꼬메오름,오름,제주특별자치도 제주시 애월읍 유수암리 산138, / ,큰노꼬메오름의 형제인 족은노꼬메오름 / 무료,126.4170735,33.39288551,마을 관광자원,
금덕무환자나무및팽나무군락,자연,제주특별자치도 제주시 애월읍 유수암리 1920, / ,제주특별자치도 시도기념물 제6호인 제주시 유수암리에 있는 무환자나무와 팽나무로 이루어진 군락 / 무료,126.4006584,33.44178657,마을 관광자원,
유수암마을,관광지,제주특별자치도 제주시 애월읍 유수암리 1892-1, / ,마을 주민들과 함께하는 농촌체험을 비롯한 전통음식문화체험 등 다양한 체험 가능함 / ,126.40278,33.44133474,마을 관광자원,
제주불빛정원,테마파크,제주특별자치도 제주시 애월읍 유수암리 1083,연중무휴 / (평일+주말+공휴일)17:00~24:00,자연과 휴식이 있는 매력적인 야경의 별이 빛나는 밤 아름다운 추억 테마파크 / 12000원(성인)+10000원(청소년)+8000원(어린이),126.4091868,33.42230345,마을 관광자원,
장전리 왕벚꽃축제길,기타,제주특별자치도 제주시 애월읍 장전리 1167-4, / ,봄 벚꽃소식과 함께 축제의 장이 열리는 곳 / 무료,126.3838247,33.45213548,마을 관광자원,
육시우영 ,관광지,제주특별자치도 제주시 애월읍 하가리 1386-1, / ,4.3사건 당시 하가리 주민들을 공개적으로 집단학살한 곳(현재 개인소유지) / ,126.3488858,33.45714782,마을 관광자원,
연화지,자연,제주특별자치도 제주시 애월읍 하가리 1569-2, / ,제주 서부의 숨은 비경 연화못 / 무료,126.3473594,33.45486103,마을 관광자원,
영모원,관광지,제주특별자치도 제주시 애월읍 하귀1리 1134-1, / ,4.3희생자의 신위를 한 곳에 모심으로써 화해와 상생의 표본이 된 곳 / 무료,126.4173323,33.47201754,마을 관광자원,
산호해수욕장,해수욕장+해변,제주특별자치도 제주시 우도면 연평리, / ,동양에서 유일하게 백사장이 홍조단괴(紅藻團塊)로 이루어진 해수욕장 / ,126.943225,33.502478,마을 관광자원,
하고수동해수욕장,해수욕장+해변,제주특별자치도 제주시 우도면 연평리, / ,밀가루를 밟는 듯한 부드러운 모래와 얕은 수심으로 가족단위로 수영을 즐기기에 좋음 / ,126.958237,33.514439,마을 관광자원,
검멀레해수욕장,해수욕장+해변,제주특별자치도 제주시 우도면 연평리, / ,총 길이 약 100m의 비교적 작은 규모의 해수욕장이지만 모래찜질을 즐기기에는 최적의 조건을 갖춘 곳 / ,126.967151,33.497336,마을 관광자원,
우도등대공원,공원,제주특별자치도 제주시 우도면 연평리 337, / (평일+주말)09:00~18:00,우도봉정상에 위치한 공원 / ,126.965,33.49294,마을 관광자원,
우도정원,테마파크,제주특별자치도 제주시 우도면 연평리 1964, / (평일+주말)10:00~17:00,제주 우도의 이국적인 정원 / 4000원(입장료),126.947017,33.501916,마을 관광자원,
우도봉(쇠머리오름),오름,제주특별자치도 제주시 우도면 연평리 산17, / ,"소가 머리를 들고 누워있는 형태를 띠고 있는데, 머리에 해당하는 부분을 쇠머리오름이라 함 / ",126.963586,33.492092,마을 관광자원,
훈데르트바서파크,테마파크,제주특별자치도 제주시 우도면 연평리 1706-1, / (평일+주말)09:30~18:00,색채마술사 훈데르트바서의 작품과 우도의 신비한 아름다움을 담은 테마파크 / 5000원(입장권+전이수전展)+6000원(소원체험팩)+8000원(훈데르트바서展)+10000원(패키지권)+15000원(자유이용권),126.9565077,33.49275715,마을 관광자원,
제주돌문화공원,공원,제주특별자치도 제주시 조천읍 교래리 산95,연중무휴 / (평일+주말)09:00~18:00,제주 특유의 돌문화를 집대성하여 조성한 공원 / 5000원(성인)+4000원(성인단체+청소년+군인)+무료(어린이),126.6590593,33.44820966,마을 관광자원,
바농오름,오름,제주특별자치도 제주시 조천읍 교래리 산 108,연중무휴 / ,비고 142m의 복합형 화구를 지닌 화산체 / 무료,126.6538018,33.45377549,마을 관광자원,
큰지그리오름,오름,제주특별자치도 제주시 조천읍 교래리 산 119,연중무휴 / ,산정부에 원형의 화구와 오름 서쪽 능선에 북동쪽으로 벌어진 말굽형 화구를 동시에 지닌 복합 화산체 / 무료,126.6452717,33.44378693,마을 관광자원,
물찻오름,오름,제주특별자치도 제주시 조천읍 교래리 산 137-1,연중무휴 / ,"물찻오름은 2008년부터 입산을 통제하고 있는데,1년에 사려니숲길 에코힐링체험 행사 때만 개방하는 오름 / 무료",126.6528711,33.39484878,마을 관광자원,
방애오름,오름,제주특별자치도 제주시 조천읍 교래리 산 45,연중무휴 / ,백록담과 한라산 정상 서벽이 위치한 방애오름은 분화구 주변에 오름인 알오름 2개가 형성된 복합형의 이중화산 / 무료,126.6845203,33.44392229,마을 관광자원,
돔배오름,오름,제주특별자치도 제주시 조천읍 교래리 산 64,연중무휴 / ,비고 36m. 원형 화구를 가진 화산체. 돔배는 제주 방언으로 도마를 말하는데 오름 모양새가 도마의 모양과 닮아 명칭 / 무료,126.6692411,33.42785414,마을 관광자원,
늡서리,오름,제주특별자치도 제주시 조천읍 교래리 산 95,연중무휴 / ,비고 59m. 말굽형(북동향)형태의 오름으로 분화구 외부 경사진 곳에 자연림이 무성하게 숲을 이루고 있음 / 무료,126.6629373,33.44177828,마을 관광자원,
까끄래기오름,오름,제주특별자치도 제주시 교래리 128,연중무휴 / ,50미터 정도의 완만한 경사로 비교적 낮은 오름에 속하는 까끄래기오름은 조릿대와 억새가 군락을 이루고 있어 아름다운 경치를 감상할 수 있음 / 무료,126.7031502,33.43164668,마을 관광자원,
말찻오름,오름,제주특별자치도 제주시 조천읍 교래리 산 137-1,연중무휴 / ,말찻오름은 물찻오름의 북동쪽 등성이와 맞닿아 이웃해 있는 오름 / 무료,126.6542458,33.40056659,마을 관광자원,
부소악,오름,제주특별자치도 제주시 조천읍 교래리 산2,연중무휴 / ,화구방향이 부대악과는 반대방향인 서남쪽으로 얕고 우묵하게 벌어진 말굽형 화구를 이루고 있는 모습이 부대악과는 대조적인 형태를 보여줌 / 무료,126.7177551,33.44219241,마을 관광자원,
족은지그리오름,오름,제주특별자치도 제주시 조천읍 교래리 산 119,연중무휴 / ,"족은지그리는 큰지그리와 등을 맞대고 초승달모양의 말굽형 분화구가 화구방향을 달리하고 있으며, 큰지그리와의 접촉부인 한구석에는 자그마한 동산이 탐스럽게 솟아있음 / 무료",126.6459915,33.45027603,마을 관광자원,
렛츠런팜 제주목장,오름,제주특별자치도 제주시 조천읍 교래리 산25-2,월요일+명절 / (평일+주말)10:00~17:00,"제주 렛츠런팜은 국내 경주마를 육성하고 관리하는 목장으로 200만㎡가 넘는 면적에 마사와 교배소, 동물병원, 조교용 주로 등을 갖춤 / 3000원(트렉터 마차 요금)",126.681477,33.41844406,마을 관광자원,
산굼부리,자연,제주특별자치도 제주시 조천읍 교래리 342-2,연중무휴 / (하절기)09:00~18:40+(동절기)09:00~17:40,"한라산의 기생화산 분화구인 함몰형 측화산으로, 자연의 경치가 빼어난 억새 군락지 중 한 곳 / 6000원(성인)+5000원(성인단체)+4000원(청소년+어린이+경로+국가유공자+장애인)+2500원(청소년단체+어린이단체)",126.6938307,33.43257522,마을 관광자원,
제주센트럴파크,테마파크,제주특별자치도 제주시 조천읍 교래리 산56-4,연중무휴 / (평일+주말)09:00~18:00,국내 최초 세계 미니어처 박물관으로 각 나라의 우수한 건축물을 전시함 / 7000원(성인)+5000원(청소년)+4000원(어린이),126.6744057,33.43345102,마을 관광자원,
제주에코랜드,테마파크,제주특별자치도 제주시 조천읍 교래리 385-1,연중무휴 / (평일+주말)09:00~18:00,30만평의 곶자왈 원시림을 기차로 체험하는 테마파크 / 14000원(성인)+12000원(청소년)+10000원(어린이),126.6702819,33.44833468,마을 관광자원,
매드벤처,테마파크,제주특별자치도 제주시 조천읍 교래리 786-29,연중무휴 / (평일+주말)09:00~19:00,"4차산업혁명 기술인 드론을 이용해 드론축구체험, 드론배우기, 드론 비행을 경험할 수 있는 관광 테마파크 / 15000원(실내드론체험30분)",126.657703,33.45398972,마을 관광자원,
교래자연휴양림,테마파크,제주특별자치도 제주시 조천읍 교래리 119,연중무휴 / (하절기)07:00~16:00+(동절기)07:00~15:00,전국에서 유일한 곶자왈 생태체험 휴양림 / 1000원(성인)+800원(성인단체)+600원(청소년+군인)+500원(청소년단체+군인단체),126.6649941,33.44035706,마을 관광자원,
새미오름,오름,제주특별자치도 제주시 조천읍 대흘리 산27-1,연중무휴 / ,산등성이는 남에서 북으로 곧게 뻗어 있고 서쪽으로 완만하고 평평한 등성마루를 이루면서 남서쪽으로 완만하게 벌어져 말굽형 화구를 이룸 / 무료,126.669422,33.47404839,마을 관광자원,
꾀꼬리오름,오름,제주특별자치도 제주시 조천읍 대흘리 산33,연중무휴 / ,"자연미를 느낄 수 있으며, 적당한 기슭을 통하여 오를 수 있고 경사는 다소 가파른 편에 속하는 오름 / 무료",126.6790997,33.46115159,마을 관광자원,
제원하늘농원,테마파크,제주특별자치도 제주시 조천읍 대흘리 852-1,연중무휴 / (평일+주말)10:00~18:00,"노지감귤과 만감류를 생산하는 농원으로, 귀농귀촌 및 다문화교육을 진행하고 있는 체험형 관광농원 / 프로그램별 요금 상이",126.6665037,33.50320283,마을 관광자원,
북촌포구,항구,제주특별자치도 제주시 조천읍 북촌리 588,연중무휴 / ,"다려도를 한눈에 볼 수 있고, 마을 충어제를 지내는 신당을 볼 수 있는 곳 / 무료",126.6941756,33.55019438,마을 관광자원,
부영농원,테마파크,제주특별자치도 제주시 조천읍 선흘리 3474,연중무휴 / ,"노지감귤, 단호박, 콜라비, 홍용과 등을 재배하며, 관광객에게 체험도 제공하는 관광농원 / ",126.6912733,33.51925122,마을 관광자원,
귤의정원바령,테마파크,제주특별자치도 제주시 조천읍 선흘리 1396,연중무휴 / ,"귤밭피크닉, 풋귤따기 체험 등이 가능한 관광농원 / ",126.7062006,33.50520118,마을 관광자원,
동백동산,자연,제주특별자치도 제주시 조천읍 선흘리 924,연중무휴 / (평일+주말)09:00~18:00,1981년 8월 26일 제주특별자치도 기념물 제10호로 지정된 선흘리 동쪽에 있는 넓은 면적의 상록활 엽수 천연림 / 무료,126.7160356,33.51644,마을 관광자원,
선녀와나무꾼,테마파크,제주특별자치도 제주시 조천읍 선흘리 1997,연중무휴 / (평일+주말)09:00~18:00,"어렸을 적 그리운 추억들을 떠올리며, 그 시절 추억을 또다시 느낄 수 있는 테마파크 / 13000원(성인)+11000원(군경+경로+장애인+유공자+청소년)+10000원(어린이+성인단체)+9000원(군경단체+경로단체+장애인단체+유공자단체)+8000원(청소년단체+어린이단체)",126.7037964,33.47878757,마을 관광자원,
캐릭파크,테마파크,제주특별자치도 제주시 조천읍 선흘리 266,연중무휴 / (평일+주말)09:00~18:00,"캐릭터 전시장으로 세계의 유명한 캐릭터를 관람하고, 첨단장비가 탑재된 기구를 통해 과학적 원리를 깨우치는 놀이를 체험할 수 있음 / 11000원(성인+어린이)+8000원(제주도민)+6000원(장애인+경로+유공자+군경)",126.7005404,33.47960359,마을 관광자원,
포레스트 사파리,테마파크,제주특별자치도 제주시 조천읍 선흘리 1817,연중무휴 / (평일+주말)10:00~17:30,"동물과 함께 사진을 찍을 수 있는 포토존&힐링존, 다양한 즐거움이 가득한 공룡라이더, 여러 동물들을 만져보고 직접 먹이주기, 동물페인팅까지 체험가능한 테마파크 / 10000원(성인)+11000원(어린이)",126.7095498,33.4630558,마을 관광자원,
김택화미술관,관광지,제주특별자치도 제주시 조천읍 신흥리 227-5,목요일 / (평일+주말)10:00~18:00,일평생 제주의 풍경을 고집스레 그렸던 화가 김택화의 예술세계와 삶의 여정을 담아낸 공간 / 4500원(성인)+3000원(청소년+군인)+1500원(어린이+어르신)+무료(7세이하+장애인+국가유공자),126.6531558,33.54375033,마을 관광자원,
신흥해수욕장,해수욕장+해변,제주특별자치도 제주시 조천읍 신흥리 731-3,연중무휴 / ,조천읍 신흥리에 위치한 물놀이가 가능한 해수욕장 / ,126.6487331,33.55177667,마을 관광자원,
새미동산,테마파크,제주특별자치도 제주시 조천읍 와흘리 2160-3,연중무휴 / (평일+주말)09:00~18:00,4계절 꽃테마 재배공원으로 감귤체험 및 알파카 목장체험을 할 수 있는 관광농원 / 프로그램별 요금 상이,126.623363,33.49513275,마을 관광자원,
제주레포츠랜드,테마파크,제주특별자치도 제주시 조천읍 와흘리 870,연중무휴 / (평일+주말)09:00~17:00,국제경기 유치 가능 카트 체험장 / 프로그램별 요금 상이,126.6387503,33.48206142,마을 관광자원,
서프라이즈테마파크,테마파크,제주특별자치도 제주시 조천읍 와흘리 2988,연중무휴 / (평일+주말)09:00~22:00,폐자원을 재활용하여 예술로 승화시킨 정크 아트 작품을 볼 수 있는 전시장 / 13000원(성인)+11000원(청소년)+10000원(어린이+경로+군인+장애인+국가유공자),126.6596222,33.46518842,마을 관광자원,
제주항일기념관,전시관,제주특별자치도 제주시 조천읍 조천리 1156,명절(추석+설날)+명절다음날 / (평일+주말)09:00~17:00,"제주인의 독립의지를 고스란히 담고 있으며, 제주인의 독립에 대한 발자취를  한자리에서 이해할 수 있도록 구성된 전시관 / 무료",126.6428996,33.54160469,마을 관광자원,
서우봉,오름,제주특별자치도 제주시 조천읍 함덕리 169-3,연중무휴 / ,"서우봉은 봄철에 노란 유채꽃이 만개하는 곳이며, 정상에서는 함덕해변을 한 눈에 조망할 수 있음 / 무료",126.677505,33.54575,마을 관광자원,
함덕해수욕장,해수욕장+해변,제주특별자치도 제주시 조천읍 함덕리 1004-10,연중무휴 / ,눈부신 모래밭과 맑은 에메랄드 빛의 바다. ‘한국의 몰디브’라는 별칭이 있음 / 무료,126.6692443,33.54306068,마을 관광자원,
모진이 몽돌해안,해수욕장+해변,제주특별자치도 제주시 추자면 신양리 56,연중무휴 / ,모래없이 몽돌(동글동글한 돌)로만 이루어진 해수욕장 / 무료,126.3343695,33.94571386,마을 관광자원,
섬생이,자연,제주특별자치도 제주시 추자면 신양리 산 87,연중무휴 / ,"풍경이 아름다운 무인도로, 낚시하기 좋은 이상적인 장소 / 무료",126.311403,33.93988321,마을 관광자원,
돈대산,자연,제주특별자치도 제주시 추자면 예초리 산 67-1,연중무휴 / ,"신양항과 해안마을 전경을 한눈에 볼 수 있는 산으로, 산 중턱에 총 길이 2km의 산책로가 조성되어 있음 / 무료",126.3229808,33.94821882,마을 관광자원,
신대산 전망대,관광지,제주특별자치도 제주시 추자면 예초리 산 7,연중무휴 / ,바다가 한눈에 보이는 전망대 / 무료,126.3411721,33.95466645,마을 관광자원,
고산리유적안내센터,관광지,제주특별자치도 제주시 한경면 고산리 3650-1,월요일+일요일 / (평일+토요일)09:00~18:00,"우리나라에서 가장 오래된 신석기유적, 동시에 후기 구석기시대 석기가 출토되어 한국에서 확인된 바 없는 유물조합상을 띠고 있음, 이 양상은 시베리아, 만주, 일본, 한반도 지역을 포함하는 동북아시아의 초기 신석기 문화연구에 좋은 자료로서 중요한 유적으로 평가되어 국가사적 412호로 지정되었음, 우리나라 가장 오래된 신석기문화를 간직한 제주 고산리 유적을 널리 알리고 살아있는 선사시대 교육장으로 활용하고자 제주 고산리 유적 안내센터를 2018년 07월부터 운영을 시작함, / 무료",126.1661833,33.30414244,마을 관광자원,
차귀도,자연,제주특별자치도 제주시 한경면 고산리 125,연중무휴 / ,해안절벽과 기암괴석이 절경을 이루는 제주 최대의 무인도로 천연기념물 제422호로 지정 / 무료,126.1478169,33.31110548,마을 관광자원,
수월봉,오름,제주특별자치도 제주시 한경면 고산리 3760,연중무휴 / ,차귀도로 떨어지는 낙조를 즐길 수 있는 천연기념물 제 513호 / 무료,126.1631082,33.29475532,마을 관광자원,
엉알해안,해수욕장+해변,제주특별자치도 제주시 한경면 고산리 3653-3,연중무휴 / ,"엉알해안은 해안절벽이 퇴적층으로 이루어져 있으며 낙조가 아름다운 곳, 유네스코에서 등재한 세계지질공원으로서 올레 12코스에 해당 / 무료",126.167514,33.2994146,마을 관광자원,
낙천아홉굿마을 의자공원,공원,제주특별자치도 제주시 한경면 낙천리 1913,연중무휴 / (평일+주말+공휴일)09:00~17:00,2007년에 시작하여 2년에 걸쳐 주민들 손으로 1천개의 의자를 제작하고 조형물을 설치한 개방형 마을공원 / 무료,126.226761,33.327613,마을 관광자원,
신창리포구,항구,제주특별자치도 제주시 한경면 신창리,연중무휴 / ,바다마을의 매력을 느낄 수 있는 포구 / 무료,126.1802941,33.34834788,마을 관광자원,
성김대건신부제주표착기념관(용수성지),전시관,제주특별자치도 제주시 한경면 용수리 4266,연중무휴(미사시간제외) / (평일+주말+공휴일)09:00~18:00,용수리의 천주교 성지로 천주교를 널리 알리고자 했던 김대건 신부의 의지를 담아 기념할 수 있게 만든 곳 / 무료,126.1676909,33.32288428,마을 관광자원,
당산봉,오름,제주특별자치도 제주시 한경면 용수리 4705,연중무휴 / ,올레 12코스의 끝자락에 있는 세계지질공원의 명소 / 무료,126.1729521,33.30793943,마을 관광자원,
당산봉 알봉,오름,제주특별자치도 제주시 한경면 용수리 2705,연중무휴 / ,올레 13코스의 끝자락에 있는 세계지질공원의 명소 / 무료,126.1706467,33.31156651,마을 관광자원,
용수항(용수리포구),항구,제주특별자치도 제주시 한경면 용수리 4274-1,연중무휴 / ,"한경면 용수리에 위치한 용수항은 어촌마을에서 흔히 볼 수 있는 소규모 어항, 20척 미만의 어선이 정박하며, 용수리포구 또는 용수포구로 불리기도 한다, 제주올레 12코스의 종착지이자 제주올레 13코스의 출발점인 지점 / 무료",126.166382,33.32331052,마을 관광자원,
방림원,공원,제주특별자치도 제주시 한경면 저지리 2120-91,연중무휴 / (평일+주말+공휴일)09:00~18:00,국내최초 세계 야생화 작품 전시 박물관 / 8000원(성인)+6000원(청소년+어린이+경로+장애인),126.26852,33.33711053,마을 관광자원,
생각하는 정원,공원,제주특별자치도 제주시 한경면 저지리 1534,연중무휴 / (평일+주말+공휴일)09:00~18:00,국가지정 민간정원으로 대한민국 대표정원으로 다양한 체험프로그램이 있음 / 12000원(성인)+10000원(청소년+경로)+7000원(어린이),126.255015,33.32550557,마을 관광자원,
환상숲곶자왈공원,공원,제주특별자치도 제주시 한경면 저지리 2848-2,연중무휴 / (평일+토요일)09:00~18:00+(일요일)13:00~18:00,제주의 천연 원시림으로 용암이 남긴 신비한 지형 위에서 다양한 동식물들이 함께 살아가는 독특한 생태계가 유지되는 보존 가치가 높은 지역 / 5000원(성인)+4000원(어린이+장애+국가유공자+도보여행자)+3000원(제주도민)+12000원(족욕체험),126.2630437,33.32287346,마을 관광자원,
저지 예술인마을,공원,제주특별자치도 제주시 한경면 저지리 2120-116,연중무휴 / ,독특한 풍광과 전국 예술인들이 모여 형성된 문화예술인촌 / 무료,126.2670446,33.33949783,마을 관광자원,
제주현대미술관,전시관,제주특별자치도 제주시 한경면 저지리 2114-63,월요일+연휴 / (평일+주말+공휴일)09:00~18:00,저지문화예술마을에 자리한 현대미술관 / 2000원(성인)+1000원(청소년+군인)+500원(어린이)+무료(6세이하+경로+장애인),126.265609,33.33968319,마을 관광자원,
갤러리데이지,전시관,제주특별자치도 제주시 한경면 저지리 2120-12,전시회마다상이 / ,"갤러리는 자연과 어우러지는 독창적이고 예술적인 건축물로 많은 이들로부터 관심과 사랑을 받고 있으며, 국내외 현대미술 작가의 소장할 가치가 있는 작품들을 선보이는 곳 / ",126.2675417,33.3378576,마을 관광자원,
가메창오름,오름,제주특별자치도 제주시 한경면 저지리 1496,연중무휴 / ,"오름의 분화구 모양이 솥 바닥을 닮은 데에서 명칭이 유래했으며 암메 혹은 가마오름이라고 부름, 기슭 일대에 인공적으로 심은 소나무가 우거져 있고, 분화구 주변에는 오래된 소나무가 군락을 이룸 / 무료",126.248594,33.32973146,마을 관광자원,
마오름,오름,제주특별자치도 제주시 한경면 저지리 산55-2,연중무휴 / ,"명칭은 모두 오름의 형상이 말과 닮은 데에서 유래하여 마악(馬岳) 또는 마봉(馬峰)이라고도 부름, 오름 전체가 고운 풀밭으로 덮여 있으며 해송이 듬성듬성 자람, 오름 곳곳에 많은 묘가 자리 잡고 있으며 분화구 부근에 과수원이 있음 / 무료",126.243598,33.33800485,마을 관광자원,
마중오름,오름,제주특별자치도 제주시 한경면 저지리 2143-18,연중무휴 / ,"마중 오름은 예로부터 머종 오름 또는 머종이 오름으로 부르다가, 머중 오름, 마중 오름 등으로 소리가 변하여 전하고 있음, 마중 오름 북동쪽에는 골프장이 들어서 있으며, 서북쪽에는 저지리 예술인 마을이 들어서 있음 / 무료",126.270717,33.33448853,마을 관광자원,
저지오름,오름,제주특별자치도 제주시 한경면 저지리 산51,연중무휴 / ,"닥몰오름, 새오름, 저지악(楮旨岳) 등 여러 별칭으로 불리는 저지오름은 비교적 가파른 깔때기형 산상 분화구를 갖고 있는 화산체, 산상의 분화구를 중심으로 어느 쪽 사면이나 경사와 거리가 비슷한 둥근 산체를 이루고 있음, 오름 각 사면에는 해송이 주종을 이루며 잡목과 함께 울창한 숲을 이루고 있음 / 무료",126.2509689,33.33271206,마을 관광자원,
문화예술 공공수장고,전시관,제주특별자치도 제주시 한경면 저지리 2114-1,월요일+연휴 / (평일+주말+공휴일)09:20~17:20,제주 미디어아트 전시관 / 2000원(성인)+1000원(청소년+군인)+500원(어린이)+무료(6세이하+경로+장애인),126.2645703,33.33722583,마을 관광자원,
유리의 성,전시관,제주특별자치도 제주시 한경면 저지리 3135-1,임시휴무(22년12월까지) / (평일+주말+공휴일)09:00~19:00,국내 최대규모의 유리조형예술체험 테마파크 / 11000원(성인)+9000원(장애인+경로+청소년)+8000원(어린이),126.2737277,33.3146732,마을 관광자원,
수호농원,테마파크,제주특별자치도 제주시 한경면 조수리 326-2,연중무휴 / (평일+주말+공휴일)10:00~22:00,"키위 수확체험, 농산물 강좌, 꿈다락 공유센터를 운영함 / ",126.2319977,33.33643926,마을 관광자원,
송아오름,오름,제주특별자치도 제주시 한경면 조수리 134,연중무휴 / ,오름 일대에 소나무가 많이 자라고 있음에 연유하여 송아오름이라 불리는 오름 / ,126.2385732,33.3356052,마을 관광자원,
산양곶자왈,공원,제주특별자치도 제주시 한경면 청수리 산 6,연중무휴 / (평일+주말+공휴일+하절기)09:00~18:00+(평일+주말+공휴일+동절기)09:00~17:00,곶자왈을 온몸으로 느낄 수 있는 공간 / 6000원(성인)+5000원(청소년+어린이),126.2519525,33.29646688,마을 관광자원,
제주평화박물관,전시관,제주특별자치도 제주시 한경면청수리 847, / (평일+주말+공휴일)08:30~17:00,"일제강점기와 태평양 전쟁 당시의 제주와 전쟁역사를 보관, 전시하고 있는 곳 / ",126.2492621,33.30566729,마을 관광자원,
청수곶자왈,자연,제주특별자치도 제주시 한경면 청수리 산 4, / ,제주도내 최대 운문산 반딧불이 서식지 / ,126.2619706,33.30110693,마을 관광자원,
가마오름,오름,제주특별자치도 제주시 한경면 청수리 1202-1,연중무휴 / ,오름의 모양새가 가마를 엎어 놓은 것과 비슷하다 하여 가마오름이라 불리는 오름 / ,126.2470112,33.30552294,마을 관광자원,
판포오름,오름,제주특별자치도 제주시 한경면 판포리 935-1,연중무휴 / ,소가 누워있는 모양새의 오름 / ,126.2135219,33.35806781,마을 관광자원,
비체올린,테마파크,제주특별자치도 제주시 한경면 판포리 725-1,연중무휴 / (평일+주말+공휴일)08:40~18:00,카약타고 캠핑하고 상상 그 이상의 즐거움이 가득한 국내최초 힐링카약파크 / 14000원(성인개인)+13000원(성인단체+성인도민개인+청소년개인)+12000원(청소년단체+어린이개인+경로개인+장애인개인+국가유공자개인+성인도민단체+청소년도민개인)+11000원(어린이단체+경로단체+장애인단체+국가유공자단체+청소년도민단체+어린이도민개인+경로도민개인+장애인도민개인+국가유공자도민개인)+10000원(어린이도민단체+경로도민단체+장애인도민단체+국가유공자도민단체),126.2185758,33.34946922,마을 관광자원,
싱계물 공원,공원,제주특별자치도 제주시 한경면 신창리 1322-1,연중무휴 / ,제주 숨은 비경 중 하나로 주변 해안풍력발전소와 함께 이국적인 풍경을 볼 수 있는 공원 / 무료,126.1738465,33.34350419,마을 관광자원,
벌내물 공원,공원,제주특별자치도 제주시 한경면 신창리 1321-1,연중무휴 / ,희귀식물 자생지로 자연생태계를 둘러 볼 수 있도록 탐방로와 관광객들이 잠시 쉬고 갈 수 있도록 정자도 마련되어 있음 / 무료,126.174844,33.34298429,마을 관광자원,
신창풍차해안,해수욕장+해변,제주특별자치도 제주시 한경면 신창리 1323,동절기+간절기 / ,제주시 숨은 비경 31곳 중 하나로 풍차6기의 장관을 볼 수 있음 / 무료,126.1765471,33.34535043,마을 관광자원,
영등할망신화공원,공원,제주특별자치도 제주시 한림읍 귀덕리 1030-8,연중무휴 / ,영등할망을 비롯한 다양한 스토리를 지닌 석상을 마주할 수 있는 공간임 / ,126.2926689,33.44361359,마을 관광자원,
귀덕연대,관광지,제주특별자치도 제주시 한림읍 귀덕리 1118,연중무휴 / ,"귀덕초등학교 북쪽에 위치하며, 횃불과 연기를 이용하여 정치·군사적으로 급한 소식을 전하던 통신수단을 말함 / ",126.2932499,33.44258234,마을 관광자원,
이랜드뮤지엄,전시관,제주특별자치도 제주시 한림읍 귀덕리 3861,월요일 / (평일+주말+공휴일)09:00~18:00,"헐리우드 영화와 관련된 세계 최고, 최대의 컬렉션을 바탕으로, 영화의 제작 과정과 배우, 감독, 시상식에 관련한 진품들을 소유하고 있는 박물관 / 3000원",126.2743892,33.43585803,마을 관광자원,
배령연대,관광지,제주특별자치도 제주시 한림읍 금능리 1603,연중무휴 / ,제주특별자치도 제주시 한림읍 금능리에 있는 조선 시대 명월진 소속의 연대 / 무료,126.2234075,33.38845501,마을 관광자원,
금능석물원,테마파크,제주특별자치도 제주시 한림읍 금능리 1282-9,연중무휴 / (평일+주말+공휴일)08:30~17:30,똑같이 생긴 하르방만 본 여행객들에게 제주 석물의 진수를 감상할 수 있게 하는 곳 / 4000원(성인)+3000원(청소년)+무료(어린이),126.2268329,33.38485201,마을 관광자원,
금능포구,항구,제주특별자치도 제주시 한림읍 금능리 1494-12,연중무휴 / ,에메랄드 빛 바다 위 평화로운 포구 / 무료,126.2281284,33.38965652,마을 관광자원,
금능해수욕장,해수욕장+해변,제주특별자치도 제주시 한림읍 금능리 2036-2,동절기+간절기 / ,"전통어로 체험이 가능한 은빛 해수욕장 , 바닥이 훤히 비치는 투명한 물빛과 바닷물이 찰박거리는 얕은 수심, 물놀이 후 따뜻하게 즐기는 온수 샤워까지 아이들과 다녀오기에 최적의 조건을 갖춘 해수욕장 / 무료",126.2358922,33.39043486,마을 관광자원,
탐나라공화국(제주남이섬),관광지,제주특별자치도 제주시 한림읍 금악리 81-8,연중무휴 / (평일+주말+공휴일)10:00~18:00,남이섬 신화의 주인공 강우현 대표의 또 다른 상상나라 / 10000원(성인당일비자+어린이1년여권)+20000원(성인1년여권)+5000원(어린이당일비자),126.3256942,33.33451741,마을 관광자원,
금오름(왕매),오름,제주특별자치도 제주시 한림읍 금악리 산1-1,연중무휴 / (평일+주말+공휴일)00:00~24:00,비교적 평탄한 지형에 오롯이 서있는 모습이 꽤나 고매하게 느껴지는 오름 / 무료,126.3057906,33.35456304,마을 관광자원,
성클라라수도원 금악성당,자연,제주특별자치도 제주시 한림읍 금악리 373,연중무휴 / ,성클라라수도원에 부속된 성당 / 무료,126.3192642,33.34852479,마을 관광자원,
성이시돌목장,테마파크,제주특별자치도 제주시 한림읍 금악리 116,연중무휴 / ,선교사로 온 맥그린치 신부가 개간한 곳으로 테쉬폰이라는 독특한 건축물을 볼 수 있는 곳 / 무료,126.321611,33.345978,마을 관광자원,
명월팽나무군락,관광지,제주특별자치도 제주시 한림읍 명월리 1767-1,연중무휴 / ,"생물학적 가치가 높아 기념물로 지정하여 보호되는 곳, 제주시 한림읍 명월리 · 제주도기념물 제19호 / 무료",126.2666354,33.38700045,마을 관광자원,
명월성지,관광지,제주특별자치도 제주시 한림읍 명월리 2237-5,연중무휴 / ,제주특별자치도 제주시 한림읍 명월리에 있는 조선시대의 성터 / 무료,126.2628605,33.399402,마을 관광자원,
프랑스샤르망,전시관,제주특별자치도 제주시 한림읍 명월리 384,일요일 / (평일+주말+공휴일)10:00~18:00,"프랑스 미술품, 골동품 등을 무료로 만날 수 있는 창고형 미술관 / 무료",126.2810824,33.3746227,마을 관광자원,
명월국민학교,음식점/카페,제주특별자치도 제주시 한림읍 명월리 1734,연중무휴 / (평일+주말+공휴일)11:00~18:00,"폐교가 마을청년회의 운영을 통해 카페와 갤러리로 재탄생된 곳, 휴무 및 특이사항은 인스타 공지 확인 및 전화문의 / 6500원(너에게사과+에이드 3종+명월차+티라미수라떼)",126.2648664,33.38872329,마을 관광자원,
비양도,자연,제주특별자치도 제주시 한림읍 협재리 산 100-1,연중무휴 / (평일+주말+공휴일)09:20~15:36,천 년의 시간을 간직한 섬 / 4500원(성인)+4000원(성인도민)+2500원(어린이+어린이도민)+2250원(국가유공자+장애인)+무료(비양도주민),126.2269778,33.4094482,마을 관광자원,
새시물,자연,제주특별자치도 제주시 한림읍 상명리 2361,연중무휴 / ,상명리 주민들의 식수로 쓰였던 마을 샘터 / 무료,126.2700627,33.36141089,마을 관광자원,
느지리오름,오름,제주특별자치도 제주시 한림읍 상명리 산 5,연중무휴 / ,"상명리의 옛 이름인 느지리에서 유래했다 높이 225m, 둘레 2,609m, 총면적 33만 2844㎡ 규모의 기생 화산 / 무료",126.2615984,33.36655853,마을 관광자원,
테우마을 수원리 농어촌체험마을,관광지,제주특별자치도 제주시 한림읍 수원리 724-2,연중무휴 / (평일+주말+공휴일)10:00~16:30,쪽빛 바다와 푸른 작물을 품에 안은 마을 / 12000원(테우낚시체험성인)+10000원(테우낚시체험학생)+80000원(스쿠버다이빙체험),126.2643903,33.4254602,마을 관광자원,
대수포구,항구,제주특별자치도 제주시 한림읍 수원리 724-5,연중무휴 / ,비양도가 보이는 작고 아담한 포구 / 무료,126.2635197,33.42542122,마을 관광자원,
진아영 할머니 집터,전시관,제주특별자치도 제주시 한림읍 월령리 381,연중무휴 / ,총탄에 턱을 맞고 쓰러진 뒤 무명천으로 턱을 가린 채 후유증으로 삶을 살아가셨던 진아영 할머니의 집터 / 무료,126.2146182,33.37596454,마을 관광자원,
월령선인장자생지,자연,제주특별자치도 제주시 한림읍 월령리 359-4,연중무휴 / ,이국적인 분위기를 풍기는 선인장 군락지 / 무료,126.2154392,33.3778766,마을 관광자원,
월령포구,항구,제주특별자치도 제주시 한림읍 월령리 317-1,연중무휴 / ,"올레길, 선인장, 바다, 풍력발전기까지 한눈에 담을 수 있는 항구 / 무료",126.2162792,33.37857162,마을 관광자원,
제주도립김창열미술관,전시관,제주특별자치도 제주시 한림읍 월림리 115-23,월요일 / (평일+주말+공휴일)09:00~18:00,작가 김창열 화백의 정신을 기리기 위한 도립미술관 / 2000원(성인)+1000원(청소년+군인)+500원(어린이)+무료(6세이하+65세이상),126.2686675,33.33906111,마을 관광자원,
제주카트클럽,테마파크,제주특별자치도 제주시 한림읍 월림리 341-2,연중무휴 / (평일+주말+공휴일)09:00~19:00,남녀노소 누구나 스피드를 즐길 수 있는 카트체험장 / 25000원(1인용)+35000원(2인용),126.2559996,33.34771558,마을 관광자원,
더마파크,테마파크,제주특별자치도 제주시 한림읍 월림리 산 8,연중무휴 / (평일+주말+공휴일)09:00~17:00,말전문 테마공원으로 기마공연과 함께 고품격승마등 볼거리와 즐길 거리가 함께 있는 체험형 테마공원 / 20000원(공연관람성인)+18000원(공연관람청소년)+15000원(공연관람어린이)+12000원(승마A코스)+25000원(카트체험1인승)+35000원(카트체험2인승),126.2443234,33.35413655,마을 관광자원,
협재굴,자연,제주특별자치도 제주시 한림읍 협재리 2600,연중무휴 / (평일+주말+공휴일+하절기)09:00~17:50+(평일+주말+공휴일+동절기)09:00~16:30+(평일+주말+공휴일+간절기)09:00~17:20,천연기념물 236호로 세계 제3대 불가사의 동굴로 꼽히는 용암동굴 / 12000원(성인개인)+10000원(경로개인+성인단체+성인도민)+9000원(경로단체+경로도민)+8000원(청소년개인)+7000원(청소년단체+어린이개인)+6000원(청소년도민+어린이단체)+5500원(어린이도민),126.2401674,33.38700576,마을 관광자원,
쌍용굴,자연,제주특별자치도 제주시 한림읍 협재리 2600,연중무휴 / (평일+주말+공휴일+하절기)09:00~17:50+(평일+주말+공휴일+동절기)09:00~16:30+(평일+주말+공휴일+간절기)09:00~17:20,한림공원 내에 위치한 두 마리의 용이 빠져 나온 것 같다고 하여 이름 붙여진 쌍용굴 / 12000원(성인개인)+10000원(경로개인+성인단체+성인도민)+9000원(경로단체+경로도민)+8000원(청소년개인)+7000원(청소년단체+어린이개인)+6000원(청소년도민+어린이단체)+5500원(어린이도민),126.2408708,33.38645108,마을 관광자원,
황금굴,자연,제주특별자치도 제주시 한림읍 협재리 2600,연중무휴 / (평일+주말+공휴일+하절기)09:00~17:50+(평일+주말+공휴일+동절기)09:00~16:30+(평일+주말+공휴일+간절기)09:00~17:20,원형보존이 잘 되어 있고 희귀한 용암굴 / 12000원(성인개인)+10000원(경로개인+성인단체+성인도민)+9000원(경로단체+경로도민)+8000원(청소년개인)+7000원(청소년단체+어린이개인)+6000원(청소년도민+어린이단체)+5500원(어린이도민),126.2416205,33.38675319,마을 관광자원,
한림공원,테마파크,제주특별자치도 제주시 한림읍 협재리 2487,연중무휴 / (평일+주말+공휴일+하절기)09:00~17:50+(평일+주말+공휴일+동절기)09:00~16:30+(평일+주말+공휴일+간절기)09:00~17:20,10만 평 대지 위에 펼쳐지는 환상적인 10가지 테마파크 / 12000원(성인개인)+10000원(경로개인+성인단체+성인도민)+9000원(경로단체+경로도민)+8000원(청소년개인)+7000원(청소년단체+어린이개인)+6000원(청소년도민+어린이단체)+5500원(어린이도민),126.2402387,33.38900322,마을 관광자원,
협재포구,항구,제주특별자치도 제주시 한림읍 협재리 1458-2,연중무휴 / ,비양도가 보이는 포구 / ,126.2438806,33.39910072,마을 관광자원,
협재해수욕장,해수욕장+해변,제주특별자치도 제주시 한림읍 협재리 2447,연중무휴 / ,"비양도, 은모래, 바다가 그려낸 그림같이 아름다운 해변 / ",126.2391598,33.39379081,마을 관광자원,
금능원담축제,관광지,제주특별자치도 제주시 한림읍 금능리 2036-2,동절기+간절기 / ,오늘날 사라져가는 원담을 널리 알리고 보존하기 위한 축제 / 무료,126.2358922,33.39043486,마을 관광자원,
힐하우스 스파,테마파크,제주특별자치도 제주시 한림읍 금악리 84-1,연중무휴 / (평일+주말+공휴일)11:00~22:00,더힐하우스스파는 블랙스톤 골프호텔 단지 내에 위치하고 있으며 편안한 분위기와 현대식 시설을 갖춘 전문 스파 / 187000원(골퍼스핸디캡)+236000원(아로마틱스파80분+스톤에너지80분)+256000원(바디에센셜80분+림파틱80분)+420000원(디톡스랩120분+안티셀룰라이트랩),126.3123479,33.33596344,마을 관광자원,
369펜션,숙박시설,조천읍 와흘로 369,16:00~11:00,"60평대의 개인 별장같이 이용할 수 있는 독채 펜션으로 가족과 단체로 방문하기 적합한 펜션 / 반려견 동반 사전 문의, 상담 필수
반려견 용품 개인 지참 필수(별도제공불가)
1마리당(10kg미만만 가능 최대 2마리) 30,000원 추가",126.6456514,33.473645,반려견 동반 관광지,"소형견, 중형견 / 목줄2M이내"
513텐동,음식점/카페,제주 제주시 테우해안로 46 2층 513텐동,"런치 11:30~15:00
디너 11:00~18:00
매주 화요일 휴무","대표메뉴: 513텐동, 육회텐동, 통돼지삼겹바베큐텐동 등 / 10kg 이하만 입장 가능
안고있거나, 가방 이용 시 가능",126.4399923,33.4957764,반려견 동반 관광지,"소형견, 중형견 / 목줄2M이내"
C&P 리조트,숙박시설,제주 서귀포시 성산읍 중산간동로 4328-63,14:00~12:00,,126.8308684,33.3901199,반려견 동반 관광지,반려동물 동반 가능 / 무료
Cafe 몽스파,음식점/카페,제주시 서사로 28 2층,"평일 12:00~19:00
주말, 공휴일 10:30~19:00","제주 삼동에 위치한 반려견 카페 / 15kg 이하만 입장 가능
5차 예방접종 필수
수컷반려견 매너벨트. 기저귀 필수
공격성이 있고, 맹견으로 지정된 반려견 입장 불가",126.5195537,33.5098253,반려견 동반 관광지,"소형견, 중형견 / 목줄2M이내"
Cafe3535.1,음식점/카페,제주시 조천읍 함덕2길 82,목~화 10:00~19:30,애견카페 / 반려동물추가요금 없음,126.6556328,33.5392088,반려견 동반 관광지,제한사항 없음
H.Y 초이호스텔,숙박시설,제주 서귀포시 태평로335번길 11-1,16:00~11:00,,126.558444,33.2470379,반려견 동반 관광지,반려동물 동반 가능 / 소형견 5키로 미만
N109,음식점/카페,제주시 구좌읍 김녕로 307,화~일 11:00~20:00,애견카페 / 반려동물추가요금 없음,126.7693733,33.5518237,반려견 동반 관광지,제한사항 없음
SOS박물관,관광지,서귀포시 법환동 월드컵로 31,수~월 10:00~17:00,박물관 / 반려동물추가요금 없음,126.5077158,33.2468182,반려견 동반 관광지,해당없음
감귤박물관,관광지,서귀포시 신효동 효돈순환로 441,"매일 09:00~18:00, 7~9월 09:00~19:00",박물관 / 반려동물추가요금 없음,126.6073584,33.2709921,반려견 동반 관광지,야외만 반려동물 동반 가능
개다방,음식점/카페,서귀포시 동홍동 중앙로 166,수~월 10:00~18:00,애견카페 / 반려동물추가요금 없음,126.5597764,33.2593512,반려견 동반 관광지,제한사항 없음
개미남,기타,제주시 구산로 26 1층 101호,"09:00~19:00
매주 일요일 휴무","100%예약제, 주차가능 / ",126.5379882,33.4830332,반려견 동반 관광지,제한없음 / 목줄2M이내
개인공간,기타,제주시 매촌1길 3-1 1층,08:00~19:00,"소형견, 중형견, 특수견 모두 미용 가능 / ",126.5890239,33.5158923,반려견 동반 관광지,"소형견, 중형견 / 목줄2M이내"
게스트하우스파티유쾌한환이네,숙박시설,서귀포시 성산읍 일주동로 4675,매일 17:00~10:00,애견 동반 펜션 / 반려동물추가요금 변동,126.8999308,33.4127422,반려견 동반 관광지,제한사항 없음
겨울이네,기타,제주시 아란4길 91 1층,"08:00~19:00
매주 일요일 휴무","유치원 프로그램은 회원권에 한하여 운영, 호텔 이용 예약 시 예약금 받음 / 호텔, 놀이방 6kg, 7~15kg, 16kg까지 이용가능",126.5418621,33.4695102,반려견 동반 관광지,제한없음 / 목줄2M이내
곱닥한개,기타,제주시 설촌로10길 12 1층,08:00~19:00,"100%예약제 운영 / kg마다 가격, 조건 상이",126.5827263,33.5238805,반려견 동반 관광지,"소형견, 중형견 / 목줄2M이내"
공천포구,관광지,서귀포시 남원읍  ,매일 00:00~24:00,관광지 / 반려동물추가요금 없음,126.7206687,33.2798827,반려견 동반 관광지,제한사항 없음
곽지해수욕장,관광지,제주시 애월읍 곽지11길 06월 15일,매일 00:00~24:00,관광지 / 반려동물추가요금 없음,126.3066946,33.4530966,반려견 동반 관광지,목줄
광치기해변,자연,서귀포시 성산읍 고성리 224-33,,광치기해변은 제주의 대표 관광명소인 성산일출봉과 함께 일출 명소로 자리 잡은 장소이다. / ,126.9238905,33.4523176,반려견 동반 관광지,제한없음 / 목줄2M이내
국립제주박물관,관광지,제주시 건입동 일주동로 17,화~일 09:00~18:00,박물관 / 반려동물추가요금 없음,126.5490796,33.5140695,반려견 동반 관광지,야외만 반려동물 동반 가능
군산오름,관광지,서귀포시 안덕면  ,매일 00:00~24:00,관광지 / 반려동물추가요금 없음,126.3306825,33.2576224,반려견 동반 관광지,"목줄, 배변봉투"
귤꽃 카페,음식점/카페,제주시 조천읍 함덕2길 90,목~화 11:30~18:00,"애견카페, 노키즈존, 상주견 있음 / 반려동물추가요금 없음",126.6553112,33.5384209,반려견 동반 관광지,해당없음
귤빛캠핑장,숙박시설,제주시 조천읍 함와로 428,14:00~12:00,"4인텐트, 카라반, 내츄럴하우스, 캠핑사이트 대여 가능 / 주말 소형견에 한해 가능(사전협의 필요)
평일 대형견 가능(사전협의 필요)",126.6741004,33.5044264,반려견 동반 관광지,제한없음 / 목줄2M이내
그대와함께라면,음식점/카페,"제주 서귀포시 성산읍 환해장성로 929 1층, 성산 해물라면 몰마농-그대와 함께라면& 화산버거",10:00~20:00,"대표메뉴: 문어라면, 딱새우, 화산버거 / 케이지 필수",126.9156322,33.4339786,반려견 동반 관광지,제한없음 / 목줄2M이내
그디글라 게스트하우스,숙박시설,제주시 애월읍 광령4길 10월 06일,,애견 동반 펜션 / 반려동물추가요금 없음,126.434492,33.4593833,반려견 동반 관광지,애견용품 개별준비
그레이그로브,음식점/카페,제주 서귀포시 안덕면 형제해안로 70,11:00~18:00,"대표메뉴: 아메리카노, 카페라떼, 바닐라라떼 / 대형견 입마개 필수",126.2998984,33.225885,반려견 동반 관광지,제한없음 / 목줄2M이내
그루밍시즌,기타,서귀포시 동홍로 29,"10:00~19:00
매주 일요일 휴무",처음 예약 시 전화 및 방문 상담으로 예약 전 필요한 부분을 꼼꼼하게 체크함 / 대형견 사전 문의 필수,126.5675852,33.2510385,반려견 동반 관광지,"소형견, 중형견 / 목줄2M이내"
그루밍제주,기타,서귀포시 천제연로 357,"09:30~19:00
매주 수요일 휴무","이용 전 사전 문의 / 유치원, 호텔 10kg 이하 가능, 미용은 대형견 이용 가능",126.4427841,33.2525315,반려견 동반 관광지,제한없음 / 목줄2M이내
그리스신화박물관,관광지,제주시 한림읍 광산로 942,매일 09:00~18:00,박물관 / 반려동물추가요금 없음,126.3567366,33.3481081,반려견 동반 관광지,해당없음
그초록,음식점/카페,제주 제주시 구좌읍 행원로7길 23-16,"10:00~19:00
매주 목요일 휴무","대표메뉴: 아보카도 커피, 아보카도 샌드위치 등 / 실내 30kg 미만 가능",126.8063968,33.5563245,반려견 동반 관광지,제한없음 / 목줄2M이내
금오름,관광지,제주시 한림읍  ,매일 00:00~24:00,관광지 / 반려동물추가요금 없음,126.2668895,33.4104269,반려견 동반 관광지,제한사항 없음
김녕몽생이,숙박시설,제주시 구좌읍 김녕로1길 35-14,매일 15:00~11:00,펜션 / 반려동물추가요금 없음,126.7481794,33.5572191,반려견 동반 관광지,해당없음
김녕해수욕장,자연,제주시 구좌읍 김녕리,개장기간 매년 7월~8월,"김녕해수욕장은 제주 김녕 성세기 해변이라고도 불리는데, 하얀 모래에 부서지는 파도들이 시원한 소리를 내고 푸른 바다 풍경이 제주 자연의 아름다움을 새삼 느끼게 해주는 곳이다. / ",126.7578438,33.5501037,반려견 동반 관광지,제한없음 / 목줄2M이내
김만덕객주,음식점/카페,건입동 1297,"11:00~22:00
매주 월요일 휴무","제주시 구도심에 있는 미니 민속촌으로, 대표메뉴는 몸국, 고사리육개장, 해물파전 등 / ",126.5321606,33.5165929,반려견 동반 관광지,제한없음 / 목줄2M이내
김만덕기념관,관광지,제주시 건입동 산지로 7,화~일 09:00~18:00,박물관 / 반려동물추가요금 없음,126.5303962,33.5159138,반려견 동반 관광지,야외만 반려동물 동반 가능
김영갑갤러리두모악,관광지,서귀포시 성산읍 삼달로 137,목~화 09:30~18:00,미술관 / 반려동물추가요금 없음,126.8541279,33.3720608,반려견 동반 관광지,해당없음
김택화미술관,관광지,제주시 조천읍 신흥로 1,월~금 11:00~16:30,미술관 / 반려동물추가요금 없음,126.6531829,33.5437532,반려견 동반 관광지,해당없음
깅코,음식점/카페,연동 260-26,10:00~19:00,"대표메뉴: 생크림케이크, 아메리카노, 브라운치즈크로플 등 / ",126.4885862,33.4908702,반려견 동반 관광지,제한없음 / 목줄2M이내
까사린다,숙박시설,제주시 한림읍 명월로6길 28,매일 15:00~11:00,애견 동반 펜션 / 반려동물추가요금 없음,126.2656294,33.3824166,반려견 동반 관광지,제한사항 없음
꼬라지오,음식점/카페,제주 서귀포시 일주동로 8777,09:30~17:00,"대표메뉴: 오픈샌드위치, 그릴드샌드위치, 베리레몬에이드, 아이스크림와플 / ",126.5507243,33.2525201,반려견 동반 관광지,제한없음 / 목줄2M이내
꽃과썸타다,관광지,서귀포시 안덕면 동광로 151,화~일 11:00~20:00,관광지 / 반려동물추가요금 없음,126.3401697,33.3097337,반려견 동반 관광지,제한사항 없음
나무식탁,음식점/카페,제주 서귀포시 대정읍 도원로 214,"11:30~16:00
매주 일, 월, 목 휴무","대표메뉴: 고등어보우스시, 제주고등어온소바 / 실내 가방, 케이지 필수",126.1915644,33.278107,반려견 동반 관광지,"소형견, 중형견 / 목줄2M이내"
나비스호텔,숙박시설,제주시 애월읍 애월해안로 885,매일 15:00~11:00,애견 동반 펜션 / 반려동물추가요금 없음,126.3915486,33.486466,반려견 동반 관광지,제한사항 없음
낙천아홉굿마을,관광지,제주시 한경면 낙수로 97,월~금 09:00~17:00,"보리피자 만들기, 보리빵 만들기 등 체험 프로그램 운영(예약필수) / 프로그램 체험 반려동물 동반 불가 / 무료",126.2267601,33.3278924,반려견 동반 관광지,제한없음 / 목줄2M이내
난드르바당,음식점/카페,제주 서귀포시 하예하동로16번길 11-1,"12:00~22:00
매주 목요일 휴무","대표메뉴: 제주산 흑돼지 2인+된장찌개, 제주산 백돼지 2인+된장찌개 / 실내 가방, 케이지 필수",126.3710072,33.2346262,반려견 동반 관광지,"소형견, 중형견 / 목줄2M이내"
넥슨컴퓨터박물관,관광지,제주시 노형동 1100로 36008,화~일 10:00~18:00,박물관 / 반려동물추가요금 없음,126.4852442,33.4603294,반려견 동반 관광지,해당없음
노리매,관광지,제주 서귀포시 대정읍 중산간서로 2260-15,09:00~18:00,"사계절 내내 자연을 즐길 수 있는 도시형 공원 / 광견병 예방접종 완료 필수
동물보호법 상 지정된 맹견 등 출입 불가 / 유료",126.2874542,33.2825756,반려견 동반 관광지,제한없음 / 목줄1.5M이내
노블렛유스호스텔,숙박시설,서귀포시 남원읍 남조로 861-83,매일 14:00~11:00,"애견 동반 펜션 / 반려동물추가요금 10,000원",126.6955123,33.3429871,반려견 동반 관광지,객실당 최대 2마리
녹차미로공원,관광지,서귀포시 색달동 산록남로 1246,매일 09:00~19:00,공원 / 반려동물추가요금 없음,126.421481,33.2938438,반려견 동반 관광지,"목줄, 배변봉투"
놀멍쉬멍고르멍,음식점/카페,서귀포시 현청로 51 놀멍쉬멍고르멍,"운동장, 카페 10:00~18:30
돌봄서비스 10:00~18:00
휴무 인스타 공지","대표메뉴: 아메리카노, 카페라떼, 바닐라라떼 / 돌봄서비스는 3개월 내 운동장, 카페 이용자에 한해 가능
예방접종 4차 미만 반려견 입장 불가
소형견 전용 운동장 13kg이하 가능
중형혼종 7kg이하 가능
지면에서 등 높이 40cm까지 입장가능
이 외 견종은 사전 전화 문의 후 이용가능",126.5559152,33.2657349,반려견 동반 관광지,"소형견, 중형견 / 목줄2M이내"
놀자개,기타,제주시 오광로 143 1층,"월-금 08:00~19:00
토-일 09:30~19:00","호텔 이용 전 2시간 유치원 서비스 / 호텔, 유치원 5kg이하, 10kg이하 가능, 미용 소형견, 중형견, 특수견 가능",126.4621228,33.4838279,반려견 동반 관광지,"소형견, 중형견 / 목줄2M이내"
농띠펜션,숙박시설,제주시 구좌읍 김녕항3길 18-16,매일 15:00~11:00,"애견 동반 펜션, 독채펜션 / 반려동물추가요금 없음",126.7465964,33.5579605,반려견 동반 관광지,제한사항 없음
높은오름,자연,제주시 구좌읍 송당리 산213-1,,"구좌읍 주변 일대에서 유일하게 고도가 400m 이상 되는 오름으로, 정상까지 왕복 약 30분 소요된다. / ",126.7925994,33.4573207,반려견 동반 관광지,제한없음 / 목줄2M이내
늘바다펜션,숙박시설,서귀포시 안덕면 대평로 38,매일 15:00~11:00,"애견 동반 펜션 / 반려동물추가요금 10,000원",126.363589,33.2371975,반려견 동반 관광지,제한사항 없음
다온재 펜션,숙박시설,서귀포시 성산읍 산성효자로114번길 121-2,매일 15:00~11:00,"애견 동반 펜션 / 반려동물추가요금 50,000원",126.906859,33.4544136,반려견 동반 관광지,"반려동물 침구 필수, 짖음, 공격성 심한 경우 제한"
다와풀빌라펜션,숙박시설,서귀포시 안덕면 소기왓로 29677,매일 16:00~11:00,"애견 동반 펜션, 5kg 미만 강아지, 고양이 입실 가능, 패밀리스위트룸만 5kg 이상 가능 / 반려동물추가요금 30,000원",126.3687088,33.2405375,반려견 동반 관광지,"애견용품 개별준비, 객실당 2마리까지만 가능"
단산,자연,서귀포시 안덕면 사계리,,오름 전체가 소나무 숲으로 이루어져 있고 그 사이 활엽수가 어우러져 있는 오름이다. / ,126.3065123,33.2316911,반려견 동반 관광지,제한없음 / 목줄2M이내
달이뜨는식탁,음식점/카페,구좌읍 월정1길 14 1층,10:00~20:00,"대표메뉴: 두꺼운흑돼지돈가스, 딱새우로제파스타 / 반려견 케이지 지참",126.7907939,33.5531618,반려견 동반 관광지,제한없음 / 목줄2M이내
달콤한 소금만들기,숙박시설,제주 서귀포시 안덕면 사계로 100,15:00~11:00,,126.2999687,33.2394365,반려견 동반 관광지,반려동물 동반 가능 / 무료
닭머르해안길,자연,제주시 조천읍 신촌북3길 62-1,,닭머르해안길은 제주 올레길 18코스이자 해안누리길 50코스이기도 하다. 제주 가을 억새하면 필수로 다녀와야 하는 일몰 명소 중 하나이다. / ,126.6132575,33.5378129,반려견 동반 관광지,제한없음 / 목줄2M이내
당당,음식점/카페,제주시 애월읍 중엄안1길 25,목~월 10:30~17:00,"애견 동반 카페, 13세 이상 입장 가능, 한 팀당 최대 4명 / 반려동물추가요금 없음",126.3709012,33.4744221,반려견 동반 관광지,제한사항 없음
당포로나인돈카츠,음식점/카페,표선면 표선당포로9,"11:00~20:00
매주 일요일 휴무","대표메뉴: 치즈콤보카츠, 모듬카츠 / 실외 이용 가능
다른 사람한테 피해 주지 않게 케어 필수
kg제한 없음",126.8435858,33.3257633,반려견 동반 관광지,제한없음 / 목줄2M이내
댕댕놀이터,기타,제주시 도근내길 56 1층,08:00~20:00,"유치원, 호텔 1시간 또는 종일반, 정액권 등 다양하게 이용 가능 / 호텔, 유치원 15kg 이하
미용 12kg 가능",126.4369843,33.4919069,반려견 동반 관광지,"소형견, 중형견 / 목줄2M이내"
댕댕샤워,기타,제주시 애월읍 하귀9길 54-8 1층,10:00~19:00,"예약문의는 영업시간 상관 없이 24시간 문의 가능 / ~9kg, 10kg가능",126.4147589,33.4827893,반려견 동반 관광지,"소형견, 중형견 / 목줄2M이내"
더리트리브,음식점/카페,제주 서귀포시 안덕면 화순로 67,10:00~19:00,"대표메뉴: 아몬드크림라떼, 에스프레소, 핸드드립, 아포카토 / 대형견 입마개 필수",126.3385706,33.2479461,반려견 동반 관광지,제한없음 / 목줄2M이내
더포레스트애월,숙박시설,제주 제주시 애월읍 소길남길 244-17,16:00~13:00,,126.3787831,33.4156542,반려견 동반 관광지,반려동물 동반 가능 / 반려견 2층 출입 불가
도곤도곤 애견미용실,기타,제주시 성신로1길 21 2층 203호,10:00~19:00,"사전예약문의 필수 / 소형견, 중형견 이용 가능, 조건에 따라 미용 중단 가능",126.4876976,33.491851,반려견 동반 관광지,"소형견, 중형견 / 목줄2M이내"
도그앤캣,기타,서귀포시 홍중로 119-2 601동 상가 107호,"08:00~19:00
매주 화요일 휴무","전화 예약 필수로 예약시간 20분 경과 시 다음 미용이 있을 경우 자동 취소 / 소형견, 중형견 이용 가능",126.5554076,33.2633217,반려견 동반 관광지,"소형견, 중형견 / 목줄2M이내"
도그헤븐 애견카페,음식점/카페,제주시 삼무로 74,09:00~19:00,"대표메뉴: 아메리카노, 카페라떼, 카페모카 / 입질, 공격성 있는 반려견 출입 금지
5차 예방 접종 필수",126.4944621,33.4895713,반려견 동반 관광지,제한없음 / 목줄2M이내
도도펫,기타,제주시 우령8길 63-16 1층,10:00~19:00,"노쇼는 재예약 불가 / 소형견, 중형견 이용 가능, 대형견 사전 문의, 호텔링 서비스는 소형견, 중형견만 가능",126.4282365,33.4853501,반려견 동반 관광지,"소형견, 중형견 / 목줄2M이내"
도두동무지개해안도로,자연,제주시 도두일동 1734,,도두동 무지개 해안도로는 제주공항과 가까운 곳에 있어 여행 전후로 가볍게 드라이브를 즐길 수 있는 곳이다. / ,126.4724869,33.5093801,반려견 동반 관광지,제한없음 / 목줄2M이내
도두봉,자연,제주시 도두항길 4-17,,"제주공항 북쪽 도두동 해안가에 위치한 도두봉은, 경사로를 따라 10여분 정도만 올라가면 정상이 나온다. / ",126.4673045,33.5066565,반려견 동반 관광지,제한없음 / 목줄2M이내
도을,음식점/카페,조천읍 남조로 2343,11:00~18:00,"대표메뉴: 도을커피, 제주청귤차, 들쑥날쑥 등 / ",126.6571533,33.4735537,반려견 동반 관광지,제한없음 / 목줄2M이내
도치돌목장,관광지,제주시 애월읍 도치돌길 293,"매일 3~11월 10:00~18:00, 12~2월 10:00~17:30","관광지, 악천후 시 휴장 / 반려동물추가요금 없음",126.3660075,33.4101313,반려견 동반 관광지,"케이지, 안기"
도치돌알파카목장,관광지,제주 제주시 애월읍 도치돌길 303 도치돌알파카목장,"3월~11월 10:00~18:00
12월~2월: 10:00~17:00",동물 먹이 주기 및 다양한 체험프로그램 운영 /  / 유료,126.3667568,33.4097265,반려견 동반 관광지,제한없음 / 목줄2M이내
돈파스타정원,음식점/카페,애월읍 애월해안로 364,09:00~23:00,"대표메뉴: 제주특산물필라프, 브런치세트, 제주바다해물돈가스 / 실외만 반려견 동반 가능
대형견 사전 전화문의 필수",126.3474266,33.472786,반려견 동반 관광지,"소형견, 중형견 / 목줄2M이내"
돌담넘는고양이,음식점/카페,구좌읍 해맞이해안로 2478,"07:00~14:00
매주 월요일 휴무","대표메뉴: 전복콩나물국밥, 제주해물뚝배기라면 / 목줄, 가슴줄, 케이지 등 케어하면 동반 입장 가능",126.9018663,33.4861157,반려견 동반 관광지,제한없음 / 목줄2M이내
돌하르방미술관,관광지,제주특별자치도 제주시 조천읍 북촌서1길 7,"4월~10월 09:00~18:00
11월~3월 09:00~17:00","미술관, 도서관, 산책로 등을 즐기는 테마 문화 공원 / 관광지 내 카페 동반 입장 불가 / 유료",126.6856123,33.5338326,반려견 동반 관광지,제한없음 / 목줄2M이내
동거문이오름,자연,제주시 구좌읍 종달리 산70,,구좌읍 종달리에 있는 동거문오름은 거미오름이나 동검은이오름으로도 불린다. / ,126.805366,33.4487798,반려견 동반 관광지,제한없음 / 목줄2M이내
동명정류장,음식점/카페,제주 제주시 한림읍 동명7길 26,11:00~18:00,"대표메뉴: 밭담라떼, 아메리카노 / 실내에서는 케이지, 가방, 안고 있으면 입장 가능",126.2662508,33.3971294,반려견 동반 관광지,제한없음 / 목줄2M이내
돼지굽는정원,음식점/카페,제주 제주시 한림읍 협재2길 8-7 1층 돼지굽는정원,11:30~22:00,대표메뉴: 제주흑돼지2인세트 / 18시 이전 방문 예약 손님만 반려견 동반 글램핑 존에서 식사 가능(네이버 사전 예약 필수),126.2410776,33.3918707,반려견 동반 관광지,제한없음 / 목줄2M이내
두산봉,자연,제주 서귀포시 성산읍 시흥리 산1-5,,"말의 머리처럼 생긴 말미오름의 다른 이름은 두산봉이며, 아래로는 성산포의 들판이 펼쳐져 있고, 정면에는 성산 일출봉, 그 왼쪽에는 우도가 한눈에 보인다. / ",126.8677451,33.4646837,반려견 동반 관광지,제한없음 / 목줄2M이내
둔지스테이,숙박시설,제주 제주시 구좌읍 계룡길 42-17,15:00~11:00,,126.8350786,33.5399181,반려견 동반 관광지,반려동물 동반 가능 / 무료
디어펫,기타,제주시 과원로 47 1층 102호,10:00~18:00,사전예약문의 필수 / 대형견 방문 전 협의 필요,126.4883192,33.476514,반려견 동반 관광지,제한없음 / 목줄2M이내
따라비오름,자연,서귀포시 표선면 가시리 산62,,따라비오름은 가을에서 겨울에 방문하면 억새가 바람에 펼쳐진다. 왕복 약 1시간 소용된다. / ,126.7502729,33.3860436,반려견 동반 관광지,제한없음 / 목줄2M이내
라 플라주,음식점/카페,제주시 조천읍 조함해안로 525,매일 08:00~23:00,애견카페 / 반려동물추가요금 없음,126.669091,33.5426991,반려견 동반 관광지,제한사항 없음
라라피포 제주,숙박시설,제주 제주시 한경면 주전길 94-12,15:00~11:00,,126.1745538,33.3347089,반려견 동반 관광지,반려동물 동반 가능 / 무료
라온제나,숙박시설,서귀포시 안덕면 사계로114번길 20059,매일 15:00~11:00,"애견 동반 펜션, 사전문의 필수 / 반려동물추가요금 20,000원",126.3065083,33.2435827,반려견 동반 관광지,제한사항 없음
라트반,음식점/카페,구좌읍 해맞이해안로 1606 1층,"브런치 08:00~13:00
핫도그 16:00~19:00
매주 화요일 휴무","대표메뉴: 유자애플티, 제주유기농구좌당근주스 / 반려동물 전용 공간 별도 마련",126.8747652,33.529078,반려견 동반 관광지,제한없음 / 목줄2M이내
러브랜드미술관,관광지,제주시 연동 1100로 2894-72,화~일 09:00~24:00,미술관 / 반려동물추가요금 없음,126.4896756,33.4516563,반려견 동반 관광지,해당없음
러블리 독스,음식점/카페,제주시 연북로 668,"11:00~22:00
매주 화요일 휴무","대표메뉴: 패션후르츠, 딸기주스. 허브티 / 입장 후 10분가량 반려견 안아야함
수컷 매너 벨트 착용
5차 접종 필수
야외 운동장 이용시 목줄 착용",126.5487854,33.4923652,반려견 동반 관광지,"소형견, 중형견 / 목줄2M이내"
럽 스테이,숙박시설,제주 서귀포시 월라봉로 89 1층,16:00~11:00,,126.6002498,33.2671616,반려견 동반 관광지,반려동물 동반 가능 / 무료
레프트핸더 게스트하우스,숙박시설,제주 제주시 구좌읍 상도북2길 17-12,10:00~12:00,,126.8649779,33.5201349,반려견 동반 관광지,반려동물 동반 가능 / 무료
로빙화,음식점/카페,제주 서귀포시 남원읍 남태해안로 13,10:00~22:00,"대표메뉴: 커피, 피자, 한라봉에이드 / 반려견 입장 시 사전에 카운터 안내 필수
실내 케이지 필수, 실외 보호자 및 반려견 동반 필수",126.7092635,33.2751304,반려견 동반 관광지,제한없음 / 목줄2M이내
마녀의언덕,숙박시설,제주 서귀포시 예래해안로 207,15:00~10:00,,126.3844465,33.2342155,반려견 동반 관광지,반려동물 동반 가능 / 무료
마노르블랑,음식점/카페,제주 서귀포시 안덕면 일주서로2100번길 46 1층,09:00~19:00,"대표메뉴: 아메리카노, 카페라떼, 한라봉감귤착즙주스 / 10kg 이내 입장 가능
실내 케이지 필수",126.2949815,33.254821,반려견 동반 관광지,소형견 / 목줄2M이내
마레카펜션,숙박시설,제주시 한림읍 금능1길 26,매일 15:00~11:00,"애견 동반 펜션, 사전문의 필수 / 반려동물추가요금 없음",126.2248502,33.3881236,반려견 동반 관광지,제한사항 없음
만복흑돼지,음식점/카페,제주 서귀포시 안덕면 산방로 53,11:00~22:00,"대표메뉴: 만복흑돼지스페셜 / 야외테라스석 이용 가능, 케이지 필수",126.3268725,33.2435789,반려견 동반 관광지,제한없음 / 목줄2M이내
말이,음식점/카페,구좌읍 세화1길 40,"12:00~23:00
매주 일요일 휴무","대표메뉴: 김말이모듬세트, 제주말고기튀김 등 / 실내: 가방, 케이지 필수
실외: 목줄착용",126.8556027,33.5266394,반려견 동반 관광지,제한없음 / 목줄2M이내
맘앤도그,숙박시설,제주시 구좌읍 송당4길 5,매일 16:00~11:00,애견 동반 펜션 / 반려동물추가요금 없음,126.784483,33.4708557,반려견 동반 관광지,제한사항 없음
맘앤도그 단비,숙박시설,제주시 구좌읍 송당2길 36,매일 16:00~11:00,애견 동반 펜션 / 반려동물추가요금 없음,126.78402,33.4693455,반려견 동반 관광지,제한사항 없음
맘앤도그 백호,숙박시설,제주시 구좌읍 송당2길 34,매일 16:00~11:00,애견 동반 펜션 / 반려동물추가요금 없음,126.7839337,33.4693626,반려견 동반 관광지,제한사항 없음
멍더랜드,기타,제주시 월광로 147,"08:00~19:00
매주 일요일 휴무","유치원 프로그램은 회원권에 한하여 운영, 호텔 이용 예약 시 예약금 받음 / 15kg미만 이용 가능
첫 이용 시 5차접종내역, 1년 이내 정기 접종 내역 필수 확인",126.4734247,33.4921358,반려견 동반 관광지,제한없음 / 목줄2M이내
멍멍플레이스,숙박시설,애월읍 소길남길 244-5,15:00~11:00,"반려견이 마음껏 뛰놀수 있는 반려견 동반 펜션 / 생리중인 반려견 기저귀 필수, 마킹이 있는 반려견 매너벨트 필수, 10kg까지 이용가능, 사전공지 필수 확인",126.3792935,33.4159584,반려견 동반 관광지,"소형견, 중형견 / 목줄2M이내"
멍포레스트,음식점/카페,제주시 애월읍 평화로 2157,화~일 11:00~19:00,"애견카페 / 반려동물추가요금 9,000원",126.3923798,33.4122971,반려견 동반 관광지,"생리, 발정기인 경우 불가, 입질 심한 경우 입마개 필수"
메리앤폴,음식점/카페,제주 제주시 한림읍 일주서로 5872 메리앤폴,"점심 11:30~16:00
저녁 17:00~20:00
매주 수요일 휴무","대표메뉴: 함박스테이크. 수제흑돼지돈가스 / 7kg 미만만 가능
이동가방, 케이지에 들어가 있을 경우에만 가능",126.293515,33.4434588,반려견 동반 관광지,소형견 / 목줄2M이내
메이즈랜드,관광지,제주시 구좌읍 비자림로 2134-47,매일 09:00~18:00,관광지 / 반려동물추가요금 없음,126.8009119,33.4887233,반려견 동반 관광지,"케이지, 안기"
명월국민학교,음식점/카페,제주 제주시 한림읍 명월로 48,10:30~19:00,"대표메뉴: 너에게사과, 에이드 3종 / 별도 야외 운동장 이용",126.2648131,33.3888873,반려견 동반 관광지,제한없음 / 목줄2M이내
모두올레 애견펜션,숙박시설,서귀포시 남원읍 남태해안로 279-4,,"애견 동반 펜션, 미용, 호텔, 애견 동반 필수 / 반려동물추가요금 없음",126.7323823,33.2819502,반려견 동반 관광지,제한사항 없음
무거버거,음식점/카페,제주 제주시 조천읍 조함해안로 356 무거버거,10:00~20:00,"대표메뉴: 당근버거, 시금치버거, 마늘버거 / 마킹하는 반려견 기저귀 착용
대형견 야외 테이블석 동반 가능
보호자 케어 중요",126.6550194,33.5489212,반려견 동반 관광지,제한없음 / 목줄2M이내
무병장수테마파크,관광지,제주 제주시 애월읍 어음13길 196,09:00~18:00,"2021 제주 웰니스 관광지 힐링, 명상 분야 선정 / 관광지 내 카페 동반 입장 불가 / 유료",126.3610158,33.3954513,반려견 동반 관광지,제한없음 / 목줄2M이내
문쏘,음식점/카페,제주 제주시 한림읍 한림상로 15-5 문쏘 제주협재점,10:30~20:30,"대표메뉴: 황게카레, 에그인헬 / 실내: 가방, 케이지 필수
대형견은 사전 전화 문의",126.256612,33.405631,반려견 동반 관광지,제한없음 / 목줄2M이내
미스틱3도,음식점/카페,제주 제주시 1100로 2894-49 1층,08:30~19:00,"대표메뉴: 녹차  새순 한라봉 아이스티, 한라봉 에이드. 마농크림 흑돼지 잠봉 샌드위치 / 목줄, 가슴줄 착용 시 실내/실외 입장 가능
대형견은 실외만 가능",126.4875109,33.449962,반려견 동반 관광지,제한없음 / 목줄2M이내
미악산,관광지,서귀포시 동홍동 인정오름로 387-63,매일 00:00~24:00,관광지 / 반려동물추가요금 없음,126.5542859,33.3007702,반려견 동반 관광지,목줄
바다다,음식점/카페,제주 서귀포시 대포로 148-15,10:30~19:00,"대표메뉴: 커피, 블루레몬에이드 / 실내 입장 불가, 실외 목줄, 가슴줄, 케이지, 가방 이용 시 화장실 가능",126.4367202,33.2369211,반려견 동반 관광지,제한없음 / 목줄2M이내
바다를본돼지협재판포점,음식점/카페,한경면 판포1길 16 1층,12:00~22:00,"대표메뉴: 바다본 흑돼지 2인+멜조림 / 머리가 들어가는 유모차, 가방에 들어가 있을 경우 동반 입장 가능",126.1978807,33.3654942,반려견 동반 관광지,"소형견, 중형견 / 목줄2M이내"
바다의 향기 펜션,숙박시설,제주 서귀포시 대정읍 송악관광로177번길 254-6,15:00~11:00,,126.2922198,33.2130858,반려견 동반 관광지,반려동물 동반 가능 / 무료
바람아래,숙박시설,제주 서귀포시 표선면 성읍민속로 89,15:00~11:00,,126.7991685,33.3849124,반려견 동반 관광지,반려동물 동반 가능 / 무료
바산 올레 펜션,숙박시설,제주 서귀포시 안덕면 대평로 29 바산올레펜션,15:00~11:00,,126.3638791,33.2365972,반려견 동반 관광지,반려동물 동반 가능 / 무료
바산올레펜션,숙박시설,서귀포시 안덕면 대평로 29,매일 15:00~11:00,"애견 동반 펜션 / 반려동물추가요금 20,000원",126.3638791,33.2365972,반려견 동반 관광지,"고양이 불가, 객실당 최대 2마리, 애견용품 개별준비"
박물관은살아있다,관광지,서귀포시 색달동 중문관광로 42,화~일 10:00~19:00,미술관 / 반려동물추가요금 없음,126.4092743,33.2548031,반려견 동반 관광지,해당없음
박수기정,자연,서귀포시 안덕면 감산리 1008,,박수기정은 바가지로 마실 수 있는 깨끗한 샘물이 솟아나는 절벽이라는 의미를 가지고 있다. 해 질 무렵 바다에 비친 노을은 절벽과 어우러져 아름다운 풍경이 펼쳐진다. / ,126.3592223,33.2366351,반려견 동반 관광지,제한없음 / 목줄2M이내
방림원,관광지,제주 제주시 한경면 용금로 864,"3월~10월 09:00~18:00
11월~2월 09:00~17:00","계절에 따라 야생화, 자생식물을 전시하는 야생화 전시관 / 관광지 내 카페 동반 입장 불가
프로그램 체험 불가 / 유료",126.2685032,33.3371723,반려견 동반 관광지,소형견 / 목줄2M이내
방림원 식물원,관광지,제주시 한경면 용금로 864,"매일 3월~10월 09:00~18:00, 11~2월 08:30~17:30",박물관 / 반려동물추가요금 없음,126.2685032,33.3371723,반려견 동반 관광지,"목줄, 배변봉투"
백수당,음식점/카페,구좌읍 월정1길 63 1층,11:00~18:00,"대표메뉴: 흑임자크림라떼, 월당라떼, 곶감말이, 곶감단지 / 실내 입장 시 가방 필수",126.793525,33.5565514,반려견 동반 관광지,제한없음 / 목줄2M이내
백약이오름,자연,서귀포시 표선면 성읍리 산1,,백약이 오름 정상에서는 산정부를 따라 주변의 다양한 오름들과 제주의 천연 환경을 두 눈으로 가득 담을 수 있다. / ,126.7902,33.4372274,반려견 동반 관광지,제한없음 / 목줄2M이내
법환포구,관광지,서귀포시 법환동 막숙포로 66,매일 00:00~24:00,관광지 / 반려동물추가요금 없음,126.5146959,33.2357038,반려견 동반 관광지,"목줄, 배변봉투"
벙커하우스,음식점/카페,제주 서귀포시 막숙포로41번길 66,09:00~21:00,"대표메뉴: 아메리카노, 아포카토, 아인슈페너 / 실내 입장 불가",126.5192185,33.2404461,반려견 동반 관광지,제한없음 / 목줄2M이내
보롬왓,관광지,제주특별자치도 서귀포시 표선면 번영로 2350-104,09:00~18:00,"아름다운 배경의 꽃밭으로 SNS에서 유명한 관광지 / 5kg미만 입장 가능
카페 반려동물 입장 불가 / 유료",126.7524924,33.413493,반려견 동반 관광지,소형견 / 목줄2M이내
본카페,음식점/카페,제주 제주시 애월읍 애월해안로 179 본카페,09:00~21:00,"대표메뉴: 더블망고스무디, 우도땅콩라떼 / 실내 입장 시 가방 필수",126.3320636,33.4678021,반려견 동반 관광지,제한없음 / 목줄2M이내
볼스카페,음식점/카페,제주 서귀포시 일주서로 626,10:00~19:00,"대표메뉴: 에그타르트+아메리카노, 어니언크림치즈&바질페스토+아메리카노 / 대형견 입마개 필수",126.4424902,33.2533663,반려견 동반 관광지,제한없음 / 목줄2M이내
봄날,음식점/카페,제주시 애월읍 애월로1길 25,매일 09:00~21:30,애견카페 / 반려동물추가요금 없음,126.3095883,33.462485,반려견 동반 관광지,제한사항 없음
봉구의간식,기타,제주 제주시 애월읍 애월로 110 봉구의간식 제주 애월점,"12:00~22:00
매주 화요일 휴무",첨가물을 넣지 않은 천연 수제 간식 전문점 / ,126.319111,33.4645348,반려견 동반 관광지,제한없음 / 목줄2M이내
뵤뵤,음식점/카페,제주 제주시 한림읍 명재로 155,10:00~18:30,"대표메뉴: 말차먹은돌하르방, 돌하르방무스케이크 / 실내 입장 시 가방, 케이지 필수
실외 입장 가능",126.2630748,33.3925322,반려견 동반 관광지,제한없음 / 목줄2M이내
부엔까미노 풀빌라,숙박시설,제주 서귀포시 안덕면 소기왓로 71 부엔까미노독채풀빌라,15:00~11:00,,126.3687434,33.2409887,반려견 동반 관광지,반려동물 동반 가능 / 무료
브레이브독스 애견카페,음식점/카페,제주시 한림읍 한수풀로 138,금~수 11:00~20:00,"애견카페, 호텔, 유치원 / 반려동물추가요금 없음",126.2766434,33.4216517,반려견 동반 관광지,"공격성, 입질 있는 경우 불가"
블랙이쉬레드,음식점/카페,애월읍 하소로 769-10,"10:00~18:00
매주 일요일 휴무",대표메뉴: 우바밀크티 / 반려견을 안고 있거나 캐리어 지참 시 동반 가능,126.3985894,33.4160287,반려견 동반 관광지,제한없음 / 목줄2M이내
블리스풀,음식점/카페,애월읍 산록서로 383 1동,"11:00~18:00
매주 월요일 휴무","대표메뉴: 불고기 파니니, 플레인 크로플, 플레인 베이글+수제크림치즈 / 동물보호법상 맹견으로 분류되는 견종, 생후 6개월 이하 또는 5차 예방 접종이 끝나지 않은 경우 입장 불가",126.4072209,33.4049064,반려견 동반 관광지,제한없음 / 목줄2M이내
비밀의숲,관광지,제주시 구좌읍  ,매일 09:00~17:00,관광지 / 반려동물추가요금 없음,126.8520615,33.5225223,반려견 동반 관광지,"목줄, 배변봉투"
비양도,관광지,제주시 한림읍 한림해안로 146,매일 00:00~24:00,관광지 / 반려동물추가요금 없음,126.2621357,33.415409,반려견 동반 관광지,케이지 이용
비체올린,관광지,제주 제주시 한경면 판조로 253-6 비체올린,08:45~18:00,"카약, 수영, 조각 공원 등을 갖춘 가족 놀이공원 / 매점 동반 입장 불가
안고 탈 수 있는 반려동물 카약 탑승 가능 / 유료",126.2185004,33.3495733,반려견 동반 관광지,제한없음 / 목줄2M이내
빌라 오무아무아,숙박시설,제주 서귀포시 속골로 17,15:00~11:00,,126.5278516,33.2419641,반려견 동반 관광지,반려동물 동반 가능 / 무료
빌레 리조트,숙박시설,제주 제주시 애월읍 고내로13길 79,16:00~11:00,,126.3470887,33.4707531,반려견 동반 관광지,"반려동물 동반 가능 / 10키로 미만, 1박 15000원, 2마리 제한"
삐삐그루밍,기타,서귀포시 대정읍 중산간서로 2269 B동 2층,"평일 09:00~19:00
주말 09:00~18:00","제주영어교육도시 내 위치한 반려견 놀이터 / 10kg 미안 이용 가능, 첫 이용 시 5차접종내역, 1년 이내 정기접종 내역 필수 확인",126.2861287,33.2806461,반려견 동반 관광지,제한없음 / 목줄2M이내
산방산 둘레길,자연,서귀포시 안덕면 사계리 112-3,,산방산둘레길은 용머리 해안 매표소에서 산방연대까지 무리하지 않고 가볍게 산책할 수 있는 산책 코스이다. / ,126.3146311,33.2334783,반려견 동반 관광지,제한없음 / 목줄2M이내
산방산유람선,관광지,서귀포시 안덕면 화순해안로106번길 16,매일 11:00~15:20,관광지 / 반려동물추가요금 없음,126.3352931,33.2368851,반려견 동반 관광지,케이지 이용
삼양검은모래해변,자연,제주 제주시 삼양동,개장기간 매년 7월~8월,삼양해수욕장은 철분이 함유된 검은 모래가 유명한 해수욕장이다.  / ,126.5856006,33.5218848,반려견 동반 관광지,제한없음 / 목줄2M이내
새물국수,음식점/카페,제주 서귀포시 안덕면 화순해안로 63,10:00~19:00,"대표메뉴: 고기국수, 비빔국수, 멸고국수 / 실내 소형견만 가능, 대형견 털이 많이 날리는 견종 출입불가",126.3335907,33.2412259,반려견 동반 관광지,소형견 / 목줄2M이내
새별오름,자연,제주시 애월읍 봉성리 산59-8,,제주의 대표 오름 중 하나로 애월읍에 위치한 오름이다. / ,126.3570413,33.3673333,반려견 동반 관광지,제한없음 / 목줄2M이내
새연교,관광지,서홍동 707-4,,새로운 인연을 만들어가는 다리'라는 뜻으로 서귀포 관광 미향의 랜드마크 /  / 무료,126.558884,33.2385318,반려견 동반 관광지,제한없음 / 목줄2M이내
샌디애견하우스,숙박시설,제주시 애월읍 예원로 121,,애견 동반 펜션 / 반려동물추가요금 없음,126.3993944,33.4594309,반려견 동반 관광지,대형견 외부 공간만 가능
생각하는 정원,관광지,제주시 한경면 녹차분재로 675,매일 11~3월 08:30~18:00 4~10월 08:30~18:30,박물관 / 반려동물추가요금 없음,126.2554704,33.3255403,반려견 동반 관광지,야외만 반려동물 동반 가능
생각하는정원,관광지,제주 제주시 한경면 녹차분재로 675 생각하는정원,09:00~18:00,"나무를 통해 배운 지식과 지혜를 공유하고 교류하는 교육문화 정원 / 5kg이상 입장 불가
음식점, 카페 출입 불가 / 유료",126.2554704,33.3255403,반려견 동반 관광지,소형견 / 목줄2M이내
서귀포 그림그리는펜션,숙박시설,제주 서귀포시 성산읍 금백조로131번길 181,15:00~11:00,,126.8438338,33.4312653,반려견 동반 관광지,"반려동물 동반 가능 / 대형견 동반 가능, 동반 비용 1박 2만원"
서귀포 꾸꾸풀빌라,숙박시설,제주 서귀포시 남원읍 신흥앞동산로40번길 10-1,15:00~11:00,,126.7704335,33.3059282,반려견 동반 관광지,반려동물 동반 가능 / 무료
서귀포 늘바다 애견동반펜션,숙박시설,제주 서귀포시 안덕면 대평로 38,15:00~11:00,,126.363589,33.2371975,반려견 동반 관광지,반려동물 동반 가능 / 무료
서귀포 다와 풀빌라 애견펜션,숙박시설,제주 서귀포시 안덕면 소기왓로 81-4,16:00~11:00,,126.3680951,33.2423867,반려견 동반 관광지,반려동물 동반 가능 / 무료
서귀포 라임오렌지빌펜션,숙박시설,제주 서귀포시 칠십리로 332 라임오렌지민박,15:00~11:00,,126.587236,33.2461872,반려견 동반 관광지,"반려동물 동반 가능 / 5키로 미만, 1박 1만원, 3마리 제한"
서귀포 블란디야펜션,숙박시설,제주 서귀포시 법환로 15 203,15:00~11:00,,126.5136075,33.2366195,반려견 동반 관광지,반려동물 동반 가능 / 무료
서귀포 성산꽃담펜션,숙박시설,제주 서귀포시 성산읍 해맞이해안로 2630,15:00~11:00,,126.909529,33.476554,반려견 동반 관광지,반려동물 동반 가능 / 무료
서귀포 예이츠산장펜션,숙박시설,제주 서귀포시 남원읍 516로 918,15:00~11:00,,126.6011548,33.3254607,반려견 동반 관광지,"반려동물 동반 가능 / 5키로 미만, 1박 1만원, 3마리 제한"
서귀포 제주앓이 펜션,숙박시설,서귀포시 강정동 일주서로 166-56,매일 16:00~11:00,"애견 동반 펜션 / 반려동물추가요금 30,000원",126.4915037,33.2548812,반려견 동반 관광지,"객실당 최대 3마리, 목줄, 애견용품 개별준비"
서귀포 중문씨에나펜션,숙박시설,제주 서귀포시 예래로 267 씨에나펜션,15:00~11:00,,126.3856954,33.2421475,반려견 동반 관광지,반려동물 동반 가능 / 무료
서귀포 중문행복스케치펜션,숙박시설,제주 서귀포시 예래로68번길 44-31,15:00~11:00,,126.4014112,33.2587864,반려견 동반 관광지,반려동물 동반 가능 / 무료
서귀포 청 리조트,숙박시설,서귀포시 강정동 중산간서로157번길 68,매일 16:00~11:00,"애견 동반 펜션 / 반려동물추가요금 5,000원",126.4970265,33.2557234,반려견 동반 관광지,객실당 최대 2마리
서귀포 청리조트,숙박시설,제주 서귀포시 중산간서로157번길 68,16:00~11:00,,126.4970265,33.2557234,반려견 동반 관광지,반려동물 동반 가능 / 무료
서귀포 캠파제주,숙박시설,서귀포시 상효동 516로 574-23,매일 15:00~11:00,"애견 동반 펜션 / 반려동물추가요금 20,000원",126.6007602,33.2983991,반려견 동반 관광지,"객실당 최대 1마리, 대형견 불가, 애견용품 개별준비"
서귀포돈사촌,음식점/카페,제주 서귀포시 동홍중앙로52번길 4,16:00~23:00,"대표메뉴: 흑돼지근고기, 근고기 / kg제한없음, 사전 문의 후 방문 권장",126.5725499,33.2552159,반려견 동반 관광지,제한없음 / 목줄2M이내
서귀포시기당미술관,관광지,서귀포시 서홍동 남성중로153번길 15,화~일 09:00~18:00,미술관 / 반려동물추가요금 없음,126.5511943,33.2448529,반려견 동반 관광지,해당없음
서귀포예술의전당,관광지,서귀포시 서홍동 태평로 270,전시공연에 따라 변동,문예회관 / 반려동물추가요금 없음,126.5509148,33.246184,반려견 동반 관광지,해당없음
서귀포칠십리시공원,관광지,서귀포시 서홍동 현청로 41-19,매일 00:00~24:00,공원 / 반려동물추가요금 없음,126.5546294,33.2669101,반려견 동반 관광지,"목줄, 배변봉투"
서귀포해양도립공원,관광지,서귀포시 서홍동 남성로128번길 13,매일 00:00~24:00,공원 / 반려동물추가요금 없음,126.5558911,33.2417609,반려견 동반 관광지,제한사항 없음
서귀포흑돈,음식점/카페,제주 서귀포시 칠십리로 278,12:00~22:00,대표메뉴: A세트(2인) / 반려견은 가방 안에 들어가 있어야 함,126.5822086,33.2478701,반려견 동반 관광지,"소형견, 중형견 / 목줄2M이내"
서복전시관,관광지,서귀포시 서귀동 칠십리로 156-8,매일 09:00~18:00,박물관 / 반려동물추가요금 없음,126.5707985,33.2448092,반려견 동반 관광지,해당없음
서우봉,자연,제주시 조천읍 함덕리 169-1,,서우봉은 동쪽 바다를 바라보는 조망이 좋아 해마다 서우봉 일출제가 열린다.  / ,126.6775454,33.5453682,반려견 동반 관광지,제한없음 / 목줄2M이내
서홍정원,음식점/카페,제주 서귀포시 솜반천로55번길 12-8,11:00~22:00,"대표메뉴: 아몬드비엔나. 썸메스페셜, 믹스베리, 트로피칼 / 1층 실내, 야외 테라스만 입장 가능",126.5544146,33.2525901,반려견 동반 관광지,제한없음 / 목줄2M이내
석부작 박물관,관광지,서귀포시 호근동 일주동로 8941,매일 08:30~17:00,박물관 / 반려동물추가요금 없음,126.5366475,33.2504709,반려견 동반 관광지,해당없음
선양 빌리지 카라반,숙박시설,제주 제주시 조천읍 와흘로 350,15:00~11:00,,126.6436791,33.474561,반려견 동반 관광지,반려동물 동반 가능 / 무료
선양 빌리지 펜션,숙박시설,제주 제주시 조천읍 와흘로 350,15:00~11:00,,126.6436791,33.474561,반려견 동반 관광지,반려동물 동반 가능 / 무료
설문대여성문화센터 여성역사문화전시관,관광지,제주시 연동 선덕로8길 12,월~금 09:00~18:00,박물관 / 반려동물추가요금 없음,126.5003724,33.4843959,반려견 동반 관광지,해당없음
섭지코지,관광지,제주 서귀포시 성산읍 고성리,,성산일출봉을 배경으로하는 해안 풍경이 가득한 장소 / 대형견 입마개 필수 / 무료,126.9082782,33.4493139,반려견 동반 관광지,제한없음 / 목줄2M이내
성산연화,음식점/카페,서귀포시 성산읍 성산중앙로 22,18:00~01:00,"대표메뉴: 잔 와인, 칵테일, 싱글몰트 위스키 / 케이지 필수",126.9324536,33.4618587,반려견 동반 관광지,제한없음 / 목줄2M이내
성산일출봉 펜션,숙박시설,서귀포시 성산읍 일출로 271,매일 15:00~11:00,펜션 / 반려동물추가요금 없음,126.9340439,33.4620076,반려견 동반 관광지,해당없음
성산카페 어반정글,음식점/카페,서귀포시 성산읍 신고로22번길 39,목~월 10:00~14:00,"애견카페, 노키즈존 / 반려동물추가요금 없음",126.9211344,33.4368847,반려견 동반 관광지,제한사항 없음
성안미술관,관광지,제주시 아라일동 중앙로 470,화~일 10:00~19:00,미술관 / 반려동물추가요금 없음,126.5416138,33.4811195,반려견 동반 관광지,해당없음
성이시돌목장,관광지,제주 제주시 한림읍 산록남로 53,,"초원과 독특한 건물, 볼거리가 가득한 목장 / 카페 내부 출입 불가 / 무료",126.3216096,33.3458892,반려견 동반 관광지,제한없음 / 목줄2M이내
세계술박물관,관광지,서귀포시 표선면 한마음초등로 431,매일 09:00~18:00,박물관 / 반려동물추가요금 없음,126.8176542,33.3539296,반려견 동반 관광지,해당없음
세계오지민속박물관,관광지,서귀포시 성산읍 서성일로 474,화~일 09:00~18:00,박물관 / 반려동물추가요금 없음,126.8406427,33.4157006,반려견 동반 관광지,야외만 반려동물 동반 가능
세계자동차 피아노박물관,관광지,서귀포시 안덕면 중산간서로 1610,매일 09:00~18:00,"박물관, 우천 시 어린이 체험장 휴관 / 반려동물추가요금 없음",126.3496509,33.2829393,반려견 동반 관광지,야외만 반려동물 동반 가능
세계조가비박물관,관광지,서귀포시 서홍동 태평로 284,매일 09:30~18:00,박물관 / 반려동물추가요금 없음,126.5516449,33.2474548,반려견 동반 관광지,해당없음
소고배 제주민박,숙박시설,제주 제주시 신성마을길 14-11,16:00~10:00,,126.489756,33.4947612,반려견 동반 관광지,반려동물 동반 가능 / 무료
소노벨제주,숙박시설,제주시 조천읍 신북로 577,15:00~11:00,"펫 동반 투숙객은 스위트(취사) 2실 이용 가능 / 주 보호자(성인 기준) 1인당 2마리 가능
스위트 객실 기준 12kg 이하 반려견
기본 1마리, 추가 1마리까지가능",126.6716937,33.5407796,반려견 동반 관광지,소형견 / 1.5M이내
소노캄제주,숙박시설,서귀포시 표선면 일주동로 6347-17,15:00~11:00,"1.5m 목줄, 가슴줄, 객실 내 반려동물 방석, 식기, 배변판, 배변시트 등 / 주 보호자(성인 기준) 1인당 2마리 가능
스위트 객실 기준 12kg 이하 반려견
기본 1마리, 추가 1마리까지가능",126.7924037,33.3050887,반려견 동반 관광지,소형견 / 1.5M이내
소암기념관,관광지,서귀포시 서귀동 소암로 15,화~일 09:00~18:00,미술관 / 반려동물추가요금 없음,126.5674027,33.2451218,반려견 동반 관광지,해당없음
소인국 테마파크,관광지,서귀포시 안덕면 중산간서로 1878,매일 09:00~17:30,관광지 / 반려동물추가요금 없음,126.3225224,33.2904107,반려견 동반 관광지,케이지 이용
소인국테마파크,관광지,제주 서귀포시 안덕면 중산간서로 1878,09:00~17:30,"전세계 유명 건축물 미니어처와 제주도의 돌 문화, 민속신앙 등 다양한 볼거리와 체험 거리를 갖춘 미니어처 테마파크 / 반려견 전용 가방, 유모차 동반 시 입장가능 / 유료",126.3225224,33.2904107,반려견 동반 관광지,"소형견, 중형견 / 목줄2M이내"
솔펜션,숙박시설,제주시 구좌읍 해맞이해안로 2478,매일 16:00~11:00,"애견 동반 펜션 / 반려동물추가요금 10,000원",126.9018663,33.4861157,반려견 동반 관광지,객실당 최대 2마리
송당나무,음식점/카페,구좌읍 송당 5길 68-140,10:00~18:00,"대표메뉴: 아메리카노, 라떼, 홍차, 그린티 / 고양이 4마리와 강아지 1마리 상주
실내외 반려견 목줄, 가슴줄 필수",126.7890455,33.4769682,반려견 동반 관광지,제한없음 / 목줄2M이내
송악산,관광지,서귀포시 대정읍 송악관광로 421-1,매일 00:00~24:00,관광지 / 반려동물추가요금 없음,126.2909086,33.2077125,반려견 동반 관광지,제한사항 없음
송악산 둘레길,자연,서귀포시 대정읍 송악관광로 421-1,,"가파도와 형제섬, 마라도까지 훤히 보이는 송악산둘레길은 세계적으로 유래가 적은 이중 분화구가 존재하는 화산학적 가치가 높은 곳이다. / ",126.2909086,33.2077125,반려견 동반 관광지,제한없음 / 목줄2M이내
쇠소깍 성게돌 펜션,숙박시설,서귀포시 하효동 쇠소깍로 186,매일 15:00~11:00,펜션 / 반려동물추가요금 없음,126.6186786,33.250751,반려견 동반 관광지,해당없음
수목원테마파크,관광지,제주시 연동 은수길 69,매일 09:00~19:00,관광지 / 반려동물추가요금 없음,126.4878987,33.4703692,반려견 동반 관광지,목줄
수월봉,관광지,제주시   ,매일 00:00~24:00,관광지 / 반려동물추가요금 없음,126.5311784,33.4995596,반려견 동반 관광지,"목줄, 배변봉투"
숨비아일랜드,음식점/카페,서귀포시 성산읍 신천서로 91,화~일 10:00~19:00,"애견카페, 운동장 / 반려동물추가요금 없음",126.8554721,33.3391545,반려견 동반 관광지,제한사항 없음
숲속바다 함덕하우스,숙박시설,제주 제주시 조천읍 함와로 281,15:00~11:00,,126.6778229,33.5151139,반려견 동반 관광지,반려동물 동반 가능 / 무료
쉼멍스테이,숙박시설,제주 서귀포시 대정읍 신영로 16-14 쉼멍스테이,16:00~11:00,"슬라이드스텝, 하우스 및 방석, 식기, 배변패드, 타월, 반려견 욕조, 드라이기, 샴푸, 빛 등  / 7kg이하 가능, 2인 1견, 최대 3인 2견",126.2459758,33.2236397,반려견 동반 관광지,소형견 / 목줄2M이내
스누피가든,관광지,제주 제주시 구좌읍 금백조로 930,"10월~3월 09:00~18:00
4월~9월 09:00~19:00","피너츠' 만화를 테마로 구성된 자연형 체험 테마가든 / 매주 수요일 '반려동물데이'만 입장 가능
1인 1마리 입장 가능
실내는 케이지, 유모차 필수
가든 셔틀버스 이용 불가
공격성이 심한 경우 퇴장조치 / 유료",126.7783388,33.4441076,반려견 동반 관광지,제한없음 / 목줄2M이내
스마일러펫,음식점/카페,제주시 애월읍 상고길 47,13:00~18:00,"악어, 파충류, 열대어, 토끼, 돼지 등 색다른 경험 제공 / ",126.4158748,33.4699474,반려견 동반 관광지,제한없음 / 목줄2M이내
스시혼,음식점/카페,제주 제주시 1100로 3191 스시혼,10:30~21:30,"대표메뉴: 모듬초밥 11p, 특초밥 12p / 방문 30분전 예약",126.4843943,33.4714624,반려견 동반 관광지,제한없음 / 목줄2M이내
스위트 호텔,숙박시설,제주 제주시 삼무로3길 9,14:00~11:00,,126.4948708,33.4902074,반려견 동반 관광지,반려동물 동반 가능 / 무료
스테이솔티,관광지,제주시 구좌읍 해맞이해안로 480-1,매일 10:00~20:00,관광지 / 반려동물추가요금 없음,126.7981936,33.5545862,반려견 동반 관광지,해당없음
스팅그레이,음식점/카페,제주 제주시 한경면 대한로 860-41,10:00~19:00,"대표메뉴: 텐저린 비양코, 비포썬셋, 말차라떼 / ",126.2465665,33.3036156,반려견 동반 관광지,제한없음 / 목줄2M이내
스파벨리스 펜션,숙박시설,제주 제주시 조천읍 종인내길 135,15:00~11:00,,126.6230684,33.4948268,반려견 동반 관광지,"반려동물 동반 가능 / 5키로 미만, 2마리 제한, 1박 2만원"
시루네펜션,숙박시설,서귀포시 검은여로 79,15:00~11:00,"슬라이드스텝, 하우스 및 방석, 식기, 타월, 드라이기, 샴푸, 빗, 물티슈 구비 / 10kg이상 반려견 1객실 당 2마리 입실 가능, 반려견 관련 용품 개인 지참 필수",126.5810693,33.2506431,반려견 동반 관광지,"소형견, 중형견 / 목줄2M이내"
식전당포,음식점/카페,제주 제주시 광양14길 17-1,"15:00~24:00
매주 월요일 휴무","대표메뉴: 모듬전, 삼색전, 육전, 돼지김치짜글이 등 / ",126.529232,33.4975711,반려견 동반 관광지,제한없음 / 목줄2M이내
신창풍차해안,자연,제주시 한경면 신창리 1290-3,,신창 해안도로는 아름다운 일몰로도 손꼽히는 장소이기에 사진을 찍고 일몰을 감상하는 것도 좋다. / ,126.1769913,33.3450401,반려견 동반 관광지,제한없음 / 목줄2M이내
신창풍차해안도로,관광지,제주시 한경면  ,매일 00:00~24:00,관광지 / 반려동물추가요금 없음,126.1841577,33.3501215,반려견 동반 관광지,목줄
씨사이드아덴,숙박시설,서귀포시 색달동 중문관광로 124,매일 15:00~11:00,"애견 동반 펜션 / 반려동물추가요금 35,000원",126.4154539,33.2477414,반려견 동반 관광지,"목줄, 케이지, 접종증명서 제출"
아라리오뮤지엄 탑동시네마,관광지,제주시 삼도이동 탑동로 14,화~일 10:00~19:00,미술관 / 반려동물추가요금 없음,126.5233853,33.5174172,반려견 동반 관광지,해당없음
아라팰리스 호텔,숙박시설,제주 제주시 남성로26길 26,15:00~11:00,,126.5237202,33.5072064,반려견 동반 관광지,반려동물 동반 가능 / 1박 1만원
아르본 리조트,숙박시설,제주 제주시 애월읍 평화로 2482,13:00~12:00,,126.4193989,33.4310632,반려견 동반 관광지,반려동물 동반 가능 / 무료
아부오름,자연,제주시 구좌읍 송당리 산164-1,,아부오름은 구좌읍 송당리 마을 남쪽에 위치한 오름이다. 둘레까지 오르는데 어렵지 않아 어린아이들과 반려동물도 함께 제주오름을 느낄 수 있다. / ,126.7773001,33.4476227,반려견 동반 관광지,제한없음 / 목줄2M이내
아침미소목장,관광지,제주특별자치도 제주시 첨단동길 160-20,10:00~17:00,넓은 초원과 체험공간을 통해 가족과 즐거운시간을 보낼 수 있는 목장 / 카페 내부 출입 불가 / 유료,126.5862903,33.4542923,반려견 동반 관광지,제한없음 / 목줄2M이내
아프리카박물관,관광지,서귀포시 대포동 이어도로 49,매일 10:00~19:00,박물관 / 반려동물추가요금 없음,126.4291705,33.2397381,반려견 동반 관광지,야외만 반려동물 동반 가능
"안녕, 상이 친구들!",기타,제주시 아란7길 47 1층 101호,"10:00~19:30
매주 일요일 휴무","미용 중에는 예약 손님 입장 가능, 그 외는 출입 제한 / 소형견, 중형견 미용 가능",126.5404173,33.4741994,반려견 동반 관광지,"소형견, 중형견 / 목줄2M이내"
안덕계곡,관광지,서귀포시 안덕면 일주서로 1524,매일 00:00~24:00,관광지 / 반려동물추가요금 없음,126.3529665,33.2584245,반려견 동반 관광지,제한사항 없음
안돌오름,관광지,제주시 구좌읍 중산간동로 2052,매일 00:00~24:00,관광지 / 반려동물추가요금 없음,126.7631332,33.4735386,반려견 동반 관광지,"목줄, 배변봉투"
알앤비타운,숙박시설,제주 서귀포시 분토왓로174번길 45 알앤비 타운,15:00~12:00,,126.5518965,33.279681,반려견 동반 관광지,반려동물 동반 가능 / 무료
앙리젤,기타,제주시 노형12길 23 지성빌딩 2층,"08:00~20:00
매주 일요일 휴무","유치원 8kg 미만 소형견, 소수정예 운영, 100% 예약제 운영 / 생후 5개월 미만, 생리중, 노령견, 전염성 질병, 입질, 공격성, 케어가 어려운 경우 이용 제한",126.4805095,33.4826303,반려견 동반 관광지,"소형견, 중형견 / 목줄2M이내"
애견카페왈 사계점,음식점/카페,서귀포시 안덕면 사계로114번길 20059,매일 09:00~18:00,"애견카페, 유치원, 호텔, 셀프목욕, 회원제 / 반려동물추가요금 없음",126.3065083,33.2435827,반려견 동반 관광지,제한사항 없음
애견펜션하젠,숙박시설,서귀포시 표선면 토산중앙로 140,매일 15:00~10:00,"애견 동반 펜션 / 반려동물추가요금 10,000원",126.7744742,33.3179688,반려견 동반 관광지,제한사항 없음
애월 코스트 34,숙박시설,제주 제주시 애월읍 신엄안2길 34,15:00~11:00,,126.3694058,33.4755744,반려견 동반 관광지,반려동물 동반 가능 / 무료
애월더선셋,음식점/카페,제주시 애월읍 일주서로 6111,매일 10:00~19:00,애견카페 / 반려동물추가요금 없음,126.3088005,33.4559742,반려견 동반 관광지,제한사항 없음
애월오누이,음식점/카페,제주 제주시 애월읍 애월로9길 54 애월오누이 식당,07:00~20:00,"대표메뉴: 성게미역국, 각재기국, 전복영양돌솥밥 / 케이지 이용 시 동반 입장 가능",126.31879,33.4666761,반려견 동반 관광지,제한없음 / 목줄2M이내
애월의 정원,숙박시설,제주 제주시 애월읍 하소로 684-45,15:00~11:00,,126.3930629,33.4207355,반려견 동반 관광지,반려동물 동반 가능 / 무료
애월한담공원,관광지,제주시 애월읍  ,매일 00:00~24:00,공원 / 반려동물추가요금 없음,126.3289766,33.462189,반려견 동반 관광지,제한사항 없음
양가형제본점,음식점/카페,한경면 청수동8길3,"11:00~19:30
매주 목요일 휴무","대표메뉴: 경버거, 양버거, 어니언링 / 가방, 유모차 필수",126.2539747,33.3073802,반려견 동반 관광지,소형견 / 목줄2M이내
어반컨트리,숙박시설,제주시 애월읍 어림비로 280-14,,애견 동반 펜션 / 반려동물추가요금 없음,126.3324264,33.4100721,반려견 동반 관광지,제한사항 없음
엉또폭포,관광지,서귀포시 강정동 염돈로 121-8,매일 09:00~18:00,관광지 / 반려동물추가요금 없음,126.491919,33.2588172,반려견 동반 관광지,"목줄, 배변봉투"
에코랜드,관광지,제주시 조천읍 번영로 1278-169,매일 11월~2월 08:30~16:30 3~10월 08:30~17:30,박물관 / 반려동물추가요금 없음,126.670355,33.4614885,반려견 동반 관광지,해당없음
에퀴녹스드협재,숙박시설,제주시 한림읍 협재로 210-55,15:00~11:00,"배편판, 식기세트, 배변패드, 반려견 방석 구비 / 반려견 동반시 사전 문의 필수
10kg 미만 최대 2마리 까지 가능",126.2509567,33.3751156,반려견 동반 관광지,"소형견, 중형견 / 목줄2M이내"
엔젤하우스,숙박시설,애월읍 신엄안3길 95,16:00~11:00,"펫방석, 펫식기, 펫계단, 펫샴푸, 반려견 드라이기, 장난감 인형, 배변패드, 기저귀, 반려견 빗, 반려견 수건 등 구비 / 반려견 동반 무료(8kg미만 가능)",126.3577826,33.4724008,반려견 동반 관광지,소형견 / 목줄2M이내
엔젤하우스펜션,숙박시설,제주시 애월읍 신엄안3길 95,매일 16:00~11:00,애견 동반 펜션 / 반려동물추가요금 없음,126.3577826,33.4724008,반려견 동반 관광지,제한사항 없음
엠제이 펜션 & 리조트,숙박시설,제주 서귀포시 안덕면 사계로 155 1365-1,15:00~11:00,,126.3020379,33.2445045,반려견 동반 관광지,반려동물 동반 가능 / 무료
여름이네,숙박시설,제주 제주시 구좌읍 평대7길 37,16:00~10:00,,126.8432458,33.5313843,반려견 동반 관광지,반려동물 동반 가능 / 무료
여미지식물원,관광지,제주 서귀포시 중문관광로 93,09:00~18:00,"중문 관광단지에 위치한 동양 최대의 온실을 보유한 식물원 / 실내, 실외 출입 가능
대형견 입마개 필수 / 유료",126.4154109,33.2525012,반려견 동반 관광지,제한없음 / 목줄2M이내
영천악,관광지,서귀포시 상효동  ,매일 00:00~24:00,관광지 / 반려동물추가요금 없음,126.5705602,33.3219839,반려견 동반 관광지,"목줄, 배변봉투"
예나르 공예박물관,관광지,제주시 한경면 저지14길 36,화~일 10:00~18:00,박물관 / 반려동물추가요금 없음,126.2668987,33.3400889,반려견 동반 관광지,해당없음
예래생태공원,관광지,상예동 5002-26,,다양한 식물과 다양한 체험을 즐길 수 있는 생태공원 /  / 무료,126.3965833,33.2475626,반려견 동반 관광지,제한없음 / 목줄2M이내
옛마을펜션,숙박시설,서귀포시 검은여로 80,15:00~11:00,"슬라이드스텝, 하우스 및 방석, 식기, 배변패드, 강아지욕조, 드라이기, 샴푸, 빗, 물티슈, 테이프클리너 구비 / 반려견 입실 사전문의 필수
1마리당 10,000원 추가
소형견 5kg 이하 가능",126.5816682,33.2507671,반려견 동반 관광지,소형견 / 목줄2M이내
오데뜨,음식점/카페,제주 제주시 한림읍 중산간서로 4995-6 오데뜨,"12:00~20:00
매주 월요일 휴무","대표메뉴: 전복삼합, 날치알새우크림우동 / 10kg 미만 반려동물만 가능
사전 확인 필요",126.2955713,33.4108875,반려견 동반 관광지,소형견 / 목줄2M이내
오멍가멍 애견카페 호텔,음식점/카페,제주시 용담삼동 어영길 64-14,수~월 11:00~19:00,"애견카페, 호텔, 노키즈존 / 반려동물추가요금 없음",126.498231,33.5174393,반려견 동반 관광지,불독 견종 입장 제한
오설록티뮤지엄,관광지,제주 서귀포시 안덕면 신화역사로 15 오설록,09:00~18:00,국내외 차 관련 박물관 / 실내 이용 불가 / 무료,126.290481,33.3062471,반려견 동반 관광지,소형견 / 목줄2M이내
오조리마을,관광지,서귀포시   ,매일 00:00~24:00,관광지 / 반려동물추가요금 없음,126.5601204,33.2540808,반려견 동반 관광지,제한사항 없음
올레낭,숙박시설,제주시 애월읍 장소로 205,,애견 동반 펜션 / 반려동물추가요금 없음,126.3799527,33.4348726,반려견 동반 관광지,제한사항 없음
올레-낭,숙박시설,제주 제주시 애월읍 장소로 205,15:00~11:00,,126.3799527,33.4348726,반려견 동반 관광지,반려동물 동반 가능 / 무료
올레요 리조트,숙박시설,제주 서귀포시 이어도로 720,15:00~11:00,,126.4926867,33.2347268,반려견 동반 관광지,반려동물 동반 가능 / 1박 1만원
올레하우스,숙박시설,제주시 구좌읍 덕행로 450-23,매일 15:00~11:00,"애견 동반 펜션 / 반려동물추가요금 20,000원",126.7785406,33.51329,반려견 동반 관광지,제한사항 없음
와랑식탁,음식점/카페,한경면 한경해안로 512-8 1층,"12:00~17:00
매달 마지막 주 월, 화요일 휴무","대표메뉴: 해장하라게라면 / 캐리어, 유모차 이용 시 동반 가능",126.1759764,33.3432312,반려견 동반 관광지,제한없음 / 목줄2M이내
왈종미술관,관광지,서귀포시 동홍동 칠십리로214번길 30,화~일 10:00~18:00,미술관 / 반려동물추가요금 없음,126.5737323,33.2451855,반려견 동반 관광지,해당없음
외도339,음식점/카페,제주 제주시 일주서로 7345 OEDO339,09:00~22:00,"대표메뉴: 아메리카노, 카페라떼, 말차라떼 / 실내 케이지 필수
실외 목줄, 가슴줄
전용존에서는 자유롭게 이용 가능
대형견 실외만 가능",126.4317215,33.4937607,반려견 동반 관광지,제한없음 / 목줄2M이내
외돌개,관광지,서홍동 791,,바다 위에 약 20m 높이로 우뚝 솟아 있는 돌기둥 /  / 무료,126.5456617,33.2400729,반려견 동반 관광지,제한없음 / 목줄2M이내
요기개,기타,제주시 오남로 280 검은색 건물,11:00~19:00,"시간제 대관 예약 가능, 반려견이 뛰놀 수 있는 반려견 놀이터 / 12kg이하만 가능",126.5133145,33.4712447,반려견 동반 관광지,"소형견, 중형견 / 목줄2M이내"
요람,음식점/카페,서귀포시 검은여로129번길 13,"주중 09:00~20:00
주말 11:00~20:00
휴게 16:30~17:00","대표메뉴: 아메리카노, 카페모카, 바닐라라떼 / 1인 1음료(1인 2마리 입장 무료)
카페, 호텔, 유치원 이용은 사전문의",126.5830876,33.2532447,반려견 동반 관광지,제한없음 / 목줄2M이내
요우르,음식점/카페,조천읍 조함해안로 343 1층,10:00~19:00,"대표메뉴: 요우르요거트, 과일요거트, 그릭후르츠산도 / 실내 유모차, 목줄, 가슴줄 필수",126.6541197,33.5493081,반려견 동반 관광지,제한없음 / 목줄2M이내
용두암,관광지,제주시 용두암길 15,,"용머리 형상을 띄고 있는 장소로, 해안도로, 출렁다리 등 산책을 즐기는 최적의 장소 /  / 무료",126.5120594,33.5150728,반려견 동반 관광지,제한없음 / 목줄2M이내
우도봉 펜션,숙박시설,제주시 우도면 영일길 156-32,매일 15:00~10:00,애견 동반 펜션 / 반려동물추가요금 없음,126.9671,33.5001469,반려견 동반 관광지,제한사항 없음
우리바다펜션,숙박시설,서귀포시 표선면 민속해안로149번길 2,,펜션 / 반려동물추가요금 없음,126.8154364,33.3082407,반려견 동반 관광지,해당없음
"우연히,그곳",음식점/카페,제주 제주시 구좌읍 중산간동로 2250,11:00~18:00,"대표메뉴: 아메리카노, 카페라떼, 바닐라라떼, 아인슈페너 / ",126.7828791,33.4716965,반려견 동반 관광지,제한없음 / 목줄2M이내
우키하우스,숙박시설,제주시 조천읍 신촌5길 56,,애견 동반 펜션 / 반려동물추가요금 없음,126.6220102,33.5378204,반려견 동반 관광지,제한사항 없음
월령리선인장군락,관광지,제주시 한림읍  ,매일 00:00~24:00,관광지 / 반려동물추가요금 없음,126.2668895,33.4104269,반려견 동반 관광지,"목줄, 배변봉투"
월령리선인장군락지,관광지,제주특별자치도 제주시 한림읍 월령리 359-4,,서쪽 해안가에 위치한 선인장 야생 군락지 /  / 무료,126.2154411,33.3778825,반려견 동반 관광지,제한없음 / 목줄2M이내
월정리해수욕장,자연,제주시 구좌읍 월정리 33-3,,"세계 자연유산 마을 월정리는 400여 년의 역사를 지니고 있는 곳이다. 해안도로 드라이브를 하다가 들르기 좋은 곳이며, 이국적인 풍경이 아름다워 눈길을 사로잡는 곳이기도 하다. / ",126.7986385,33.5551135,반려견 동반 관광지,제한없음 / 목줄2M이내
위플레이독 애견놀이터,음식점/카페,서귀포시 성산읍 서성일로1136번길 10월 01일,매일 15:00~11:00,애견카페 / 반려동물추가요금 없음,126.9000347,33.4445706,반려견 동반 관광지,"공격성, 입질, 미접종 반려견 제한"
유민미술관,관광지,서귀포시 성산읍 섭지코지로 107,화~일 09:00~18:00,미술관 / 반려동물추가요금 없음,126.9287042,33.4255898,반려견 동반 관광지,해당없음
유수암캠핑장,숙박시설,애월읍 하소로 684-25,13:00~11:00,"반려동물 잔디시설, 바비큐 시설, 1시간 전까지 미리 사전 예약 가능 / 옆 고객들에게 피해가 안 가게 소음관리 필요",126.3938832,33.4223148,반려견 동반 관광지,소형견 / 목줄2M이내
유에프오 펜션,숙박시설,제주시 애월읍 애월해안로 765,매일 16:00~11:00,펜션 / 반려동물추가요금 없음,126.3818402,33.4855012,반려견 동반 관광지,해당없음
이너프,음식점/카페,제주 제주시 애월읍 고성8길 33 1층,10:30~18:00,"대표메뉴: 큐브파운드박스, 아이스크림라떼 / 안거나 케이지 동반시 입장 가능",126.4189785,33.4560129,반려견 동반 관광지,제한없음 / 목줄2M이내
이랜드뮤지엄,관광지,제주시 한림읍 한림해안로 530,화~일 09:00~18:00,박물관 / 반려동물추가요금 없음,126.2744606,33.4357935,반려견 동반 관광지,야외만 반려동물 동반 가능
이쁜새 이쁘게 노래하고 펜션,숙박시설,제주 제주시 한림읍 협재로 68-5,14:00~11:00,,126.2469603,33.3922064,반려견 동반 관광지,반려동물 동반 가능 / 1박 1만원
이중섭미술관,관광지,서귀포시 서귀동 이중섭로 03월 27일,매일 09:30~17:30,미술관 / 반려동물추가요금 없음,126.5644192,33.2477832,반려견 동반 관광지,해당없음
이호테우말등대,관광지,제주시 이호일동  ,매일 00:00~24:00,공원 / 반려동물추가요금 없음,126.4574798,33.4993221,반려견 동반 관광지,"목줄, 배변봉투"
일구공스테이지하우스,음식점/카페,구좌읍 해맞이해안로 2361 1층,10:00~19:30,"대표메뉴: 스테이지 베이컨 치즈버거, 고기중독자, 스파이스치킨버거 / 실내 케이지, 가방 필수
실외 테라스 이용 가능",126.9107766,33.4903418,반려견 동반 관광지,제한없음 / 목줄2M이내
일출랜드,관광지,제주 서귀포시 성산읍 중산간동로 4150-30,09:00~18:00,"천연용암동굴인 마천굴을 중심으로 수변공원, 잔디광장, 분재정원 등 다양한 테마로 구성된 테마공원 / 광견병 예방접종 필수
공격성 있는 반려견, 대형견 입마개 필수 / 유료",126.8420876,33.382967,반려견 동반 관광지,제한없음 / 목줄2M이내
일출랜드 식물원,관광지,서귀포시 성산읍 중산간동로 4150-30,매일 09:00~18:00,박물관 / 반려동물추가요금 없음,126.8420876,33.382967,반려견 동반 관광지,"야외만 동반 가능, 목줄, 배변봉투, 대형견 입마개"
자구리공원,관광지,서귀포시 서귀동  ,매일 00:00~24:00,공원 / 반려동물추가요금 없음,126.5624836,33.2493477,반려견 동반 관광지,목줄
저지문화예술인마을,관광지,제주시 한경면  ,매일 00:00~24:00,"관광지, 현대미술관 입장료 2,000원 / 반려동물추가요금 없음",126.1841577,33.3501215,반려견 동반 관광지,목줄
정모시쉼터,관광지,서귀포시 서귀동 부두로5번길 9,매일 00:00~24:00,"관광지, 물놀이장 7~8월 10:00~18:00 / 반려동물추가요금 없음",126.5661867,33.244684,반려견 동반 관광지,"목줄, 배변봉투"
정물오름,관광지,제주시 한림읍  ,매일 00:00~24:00,관광지 / 반려동물추가요금 없음,126.2668895,33.4104269,반려견 동반 관광지,"목줄, 배변봉투"
정방폭포,관광지,서귀포시 동홍동 칠십리로214번길 37,"월~금 09:00~18:00, 토~일 09:00~18:00","관광지, 일몰에 따라 입장마감시간 변동되므로 방문 전 확인 필수 / 반려동물추가요금 없음",126.5730528,33.244745,반려견 동반 관광지,"목줄, 배변봉투"
제라펫,기타,제주시 용담로20길 28,"08:00~19:00
매주 일요일 휴무","유치원 프로그램은 회원권에 한하여 운영, 호텔 이용 예약 시 예약금 받음 / 15kg미만 이용 가능
첫 이용 시 5차접종내역, 1년 이내 정기접종 내역 필수 확인",126.5134526,33.507868,반려견 동반 관광지,제한없음 / 목줄2M이내
제이각,관광지,제주시 이도일동 오현길 56,매일 00:00~24:00,관광지 / 반려동물추가요금 없음,126.5265996,33.5100356,반려견 동반 관광지,"목줄, 배변봉투"
제이아일랜드,음식점/카페,서귀포시 성산읍 환해장성로 69,화~일 09:30~19:30,애견카페 / 반려동물추가요금 없음,126.8797246,33.3787862,반려견 동반 관광지,제한사항 없음
제주 가이아 호텔,숙박시설,제주 제주시 연동7길 4,14:00~12:00,,126.4906234,33.4894255,반려견 동반 관광지,반려동물 동반 가능 / 무료
제주 공룡랜드 전시관,관광지,제주시 애월읍 광령평화2길 1,"매일 하절기 09:30~18:30, 동절기 09:30~18:00",박물관 / 반려동물추가요금 없음,126.4336703,33.4416753,반려견 동반 관광지,해당없음
제주 그림 그리는 펜션,숙박시설,서귀포시 성산읍 금백조로131번길 181,매일 15:00~11:00,"애견 동반 펜션 / 반려동물추가요금 10,000원",126.8438338,33.4312653,반려견 동반 관광지,제한사항 없음
제주 기린빌라리조트,숙박시설,제주 서귀포시 남원읍 서성로 427,15:00~11:00,,126.6413063,33.322318,반려견 동반 관광지,"반려동물 동반 가능 / 10키로 미만, 무료"
제주 꽃담펜션,숙박시설,서귀포시 성산읍 해맞이해안로 2630,매일 15:00~11:00,"애견 동반 펜션 / 반려동물추가요금 10,000원",126.909529,33.476554,반려견 동반 관광지,제한사항 없음
제주 다온재 ,숙박시설,제주 서귀포시 성산읍 산성효자로114번길 121-3,15:00~11:00,,126.9065462,33.454483,반려견 동반 관광지,반려동물 동반 가능 / 1박 3만원
제주 마루호스텔,숙박시설,제주 서귀포시 안덕면 평화로 486,15:00~11:00,,126.3177883,33.2792214,반려견 동반 관광지,반려동물 동반 가능 / 무료
제주 마루호텔앤카페,숙박시설,서귀포시 안덕면 평화로 486,매일 15:00~11:00,"애견 동반 펜션 / 반려동물추가요금 20,000원",126.3177883,33.2792214,반려견 동반 관광지,객실당 최대 1마리
제주 메모리 펜션,숙박시설,서귀포시 강정동 염돈로 95,매일 15:00~11:00,"애견 동반 펜션 / 반려동물추가요금 20,000원",126.4918722,33.2571667,반려견 동반 관광지,객실당 최대 1마리
제주 바나바하도펜션,숙박시설,제주 제주시 구좌읍 해맞이해안로 1926-3,15:00~11:00,,126.8993791,33.5168569,반려견 동반 관광지,반려동물 동반 가능 / 무료
제주 블루앤씨 펜션,숙박시설,서귀포시 성산읍 서성일로 188-18,매일 16:00~11:00,"애견 동반 펜션 / 반려동물추가요금 50,000원",126.8148757,33.4027442,반려견 동반 관광지,객실당 최대 2마리
제주 빈티지1950펜션,숙박시설,제주 제주시 구좌읍 덕행로 175-42,15:00~11:00,,126.7961296,33.5310344,반려견 동반 관광지,반려동물 동반 가능 / 무료
제주 삼양동 유적,관광지,제주시 삼양일동 선사로2길 13,매일 09:00~18:00,박물관 / 반려동물추가요금 없음,126.5880388,33.5235264,반려견 동반 관광지,해당없음
제주 섯동네펜션,숙박시설,제주 제주시 구좌읍 월정중길 55 3층,16:00~11:00,,126.7942541,33.5583346,반려견 동반 관광지,반려동물 동반 가능 / 무료
제주 스위트 모텔,숙박시설,제주 제주시 삼무로3길 9,13:00~12:00,,126.4948708,33.4902074,반려견 동반 관광지,반려동물 동반 가능 / 무료
제주 스타 하우스,숙박시설,제주 제주시 애월읍 하광로 540-66,15:00~11:00,,126.4288081,33.441163,반려견 동반 관광지,반려동물 동반 가능 / 무료
제주 앙크레펜션,숙박시설,서귀포시 법환동 법환로58번길 39,매일 15:00~11:00,"애견 동반 펜션 / 반려동물추가요금 20,000원",126.5098673,33.2420655,반려견 동반 관광지,객실당 최대 2마리
제주 애월 장군의집,숙박시설,제주시 애월읍 고내로7길 14489,매일 15:00~12:00,애견 동반 펜션 / 반려동물추가요금 변동,126.3372227,33.4657708,반려견 동반 관광지,제한사항 없음
제주 애월코스트34,숙박시설,제주시 애월읍 신엄안2길 34,매일 15:00~11:00,"애견 동반 펜션 / 반려동물추가요금 10,000원",126.3694058,33.4755744,반려견 동반 관광지,객실당 최대 2마리
제주 에이치빌풀펜션,숙박시설,제주시 구좌읍 덕행로 175-32,매일 15:00~11:00,애견 동반 펜션 / 반려동물추가요금 없음,126.7963888,33.5317492,반려견 동반 관광지,객실당 최대 2마리
제주 에코 스위츠,숙박시설,제주 서귀포시 중문상로 207-13,15:00~11:00,,126.4277873,33.2654518,반려견 동반 관광지,"반려동물 동반 가능 / 8키로 미만, 1박 2만원, 2마리 제한"
제주 와싱톤 펜션,숙박시설,서귀포시 성산읍 신천서로50번길 22-56,매일 15:00~12:00,애견 동반 펜션 / 반려동물추가요금 없음,126.8489157,33.341889,반려견 동반 관광지,애견용품 개별준비
제주 우도그린휴양펜션,숙박시설,제주 제주시 우도면 우도해안길 290,15:00~11:00,,126.9421563,33.505256,반려견 동반 관광지,반려동물 동반 가능 / 무료
제주 월정여가펜션,숙박시설,제주 제주시 구좌읍 해맞이해안로 622 1층,15:00~11:00,,126.8110339,33.5566306,반려견 동반 관광지,반려동물 동반 가능 / 무료
제주 지아니비펜션,숙박시설,제주 제주시 애월읍 애월해안로 274-1,15:00~11:00,,126.3405659,33.4687005,반려견 동반 관광지,반려동물 동반 가능 / 무료
제주 크리스마스 풀빌라 리조트,숙박시설,제주 제주시 구좌읍 해맞이해안로 2030-8,15:00~10:00,,126.8997158,33.5089617,반려견 동반 관광지,"반려동물 동반 가능 / 5키로 미만, 1박 2만원, 1마리 제한"
제주 통나무파크펜션,숙박시설,제주 제주시 애월읍 도치돌길 303 통나무파크 안내소,15:00~11:00,,126.3667568,33.4097265,반려견 동반 관광지,반려동물 동반 가능 / 무료
제주 파더스가든,관광지,서귀포시 안덕면 병악로 44-33,매일 09:00~18:00,관광지 / 반려동물추가요금 없음,126.3654434,33.2804974,반려견 동반 관광지,목줄
